,STATE,YEAR,COUNTY,LIBRARY_ID,LIBRARY_NAME,CITY,ZIP,ADDRESS,FIPSST,LONGITUDE,LATITUDE,GEOCODE,COUNTY_POP,VISITS,HRS_OPEN,MOBILE_BOOKS,KIDCIRCL,KIDATTEN,AUDIO,VIDEO,SUBSCRIP,LOCGVT,STGVT,FEDGVT,OTHER_INCOME,TOTAL_INCOME
55194,AK,2008,KENAI PENINSULA,AK0001-002,ANCHOR POINT PUBLIC LIBRARY,ANCHOR POINT,99556,72551 MILO FRITZ AVENUE,2.0,-151.853479,59.78047,CI1,53409.0,7357,1404,0,1336,374,184.0,2686.0,10,2860,6350,0,7789,16999
55195,AK,2008,ANCHORAGE,AK0002-011,ANCHORAGE PUBLIC LIBRARY,ANCHORAGE,99503,3600 DENALI STREET,2.0,-149.876714,61.18792,MA1,279243.0,840113,12765,0,445026,29142,36334.0,42681.0,1324,10451914,291930,144888,524053,11412785
55196,AK,2008,DENALI,AK0003-002,ANDERSON VILLAGE LIBRARY,ANDERSON,99744,101 FIRST STREET,2.0,-149.178545,64.34357,CI1,1848.0,2028,500,0,707,358,191.0,1250.0,10,6500,6350,789,2754,16393
55197,AK,2008,BETHEL,AK0006-002,KUSKOKWIM CONSORTIUM LIBRARY,BETHEL,99559,420 STATE HIGHWAY,2.0,-161.760222,60.77014,CI1,17236.0,17000,2458,0,2146,2924,2470.0,1772.0,61,67600,6350,33000,172008,278958
55198,AK,2008,MATANUSKA-SUSITNA,AK0007-002,BIG LAKE PUBLIC LIBRARY,BIG LAKE,99652,3140 SOUTH BIG LAKE ROAD,2.0,-149.819317,61.55251,CO1,85458.0,32712,2568,0,22069,4491,1491.0,1638.0,25,253992,6350,1000,2730,264072
55199,AK,2008,DENALI,AK0008-002,CANTWELL COMMUNITY LIBRARY,CANTWELL,99729,1 SCHOOL ROAD,2.0,-148.677951,63.44362,CI1,1848.0,1930,720,0,2095,79,371.0,520.0,16,4409,6350,6000,1581,18340
55200,AK,2008,KODIAK ISLAND,AK0011-002,CHINIAK PUBLIC LIBRARY,CHINIAK,99615,43318 SPRUCE WAY,2.0,-152.491432,57.74737,CI1,13049.0,545,531,0,101,34,320.0,843.0,22,3000,6350,0,0,9350
55201,AK,2008,ALEUTIANS EAST,AK0014-002,COLD BAY PUBLIC LIBRARY,COLD BAY,99571,10 BARANOV STREET,2.0,-161.128461,55.7397,CI1,2810.0,1550,500,0,597,330,502.0,3004.0,28,2000,6350,0,465,8815
55202,AK,2008,KENAI PENINSULA,AK0015-002,COOPER LANDING COMMUNITY LIBRARY,COOPER LANDING,99572,MILE .8 BEAN CREEK ROAD,2.0,-150.134689,60.49075,CI1,53409.0,3484,748,0,603,400,513.0,849.0,3,0,6350,0,11406,17756
55203,AK,2008,VALDEZ-CORDOVA,AK0016-002,CORDOVA PUBLIC LIBRARY,CORDOVA,99574,622 FIRST STREET,2.0,-145.766016,60.54801,CI1,9362.0,25607,2288,0,5229,2257,619.0,1405.0,50,350298,6350,1000,0,357648
55204,AK,2008,PR WALES-OUTER KE,AK0017-003,CRAIG PUBLIC LIBRARY,CRAIG,99921,504 THIRD STREET,2.0,-133.151451,55.47608,CI1,5533.0,13108,1860,0,7142,755,679.0,2097.0,56,92676,6350,6000,4587,109613
55205,AK,2008,SE FAIRBANK,AK0019-002,DELTA COMMUNITY LIBRARY,DELTA JUNCTION,99737,2291 DEBORAH STREET,2.0,-145.713082,64.03256,CI1,6753.0,42940,2860,0,10962,1415,553.0,1342.0,9,151091,6350,1000,0,158441
55206,AK,2008,DILLINGHAM,AK0020-002,DILLINGHAM PUBLIC LIBRARY,DILLINGHAM,99576,306 D STREET WEST,2.0,-158.466804,59.04026,CI1,4933.0,14664,2424,0,8823,34,105.0,1677.0,0,84431,6350,6000,8126,104907
55207,AK,2008,SE FAIRBANK,AK0021-002,EAGLE PUBLIC LIBRARY,EAGLE,99738,2ND & AMUNDSEN,2.0,-141.201813,64.78648,CI1,6753.0,3120,808,0,1866,591,599.0,1914.0,43,2000,6350,5000,3982,17332
55208,AK,2008,NOME,AK0022-002,ERNEST NYLIN MEMORIAL LIBRARY,ELIM,99739,50 ELIM LOOP,2.0,-162.073651,64.75812,CI1,9261.0,460,315,0,50,25,300.0,154.0,0,2950,2650,0,0,5600
55209,AK,2008,FAIRBANKS NORTH STAR,AK0023-002,FAIRBANKS NORTH STAR BOROUGH PUBLIC LIBRARY,FAIRBANKS,99701,1215 COWLES STREET,2.0,-147.73849,64.83845,CO1,97970.0,344723,5856,1,233167,21007,16993.0,20949.0,1007,4929278,17206,116354,41689,5104527
55210,AK,2008,YUKON-KOYUKUK,AK0025-002,CHARLES EVANS COMMUNITY/SCHOOL LIBRARY,GALENA,99741,299 ANTOSKI DRIVE,2.0,-154.720238,65.96966,CI1,5701.0,3100,750,0,1270,462,51.0,859.0,40,23192,6350,0,2802,32344
55211,AK,2008,VALDEZ-CORDOVA,AK0027-002,COPPER VALLEY COMMUNITY LIBRARY,GLENNALLEN,99588,MILE 186 GLENN HIGHWAY,2.0,-146.369847,62.05552,CI1,9362.0,12200,1556,1,4445,346,451.0,3081.0,25,0,6350,4500,24850,35700
55212,AK,2008,SKAGWAY-ANGOON,AK0028-002,GUSTAVUS PUBLIC LIBRARY,GUSTAVUS,99826,14 GUSTAVUS ROAD,2.0,-136.855874,58.83307,CI1,-1.0,8239,1250,0,2540,680,106.0,769.0,26,32455,14350,7000,13220,67025
55213,AK,2008,HAINES,AK0029-002,HAINES BOROUGH PUBLIC LIBRARY,HAINES,99827,111 THIRD AVENUE SOUTH,2.0,-135.446889,59.2363,CO1,2271.0,84260,2800,0,16934,5794,1444.0,4504.0,136,281412,6350,77599,29346,394707
55214,AK,2008,DENALI,AK0030-002,TRI-VALLEY COMMUNITY LIBRARY,HEALY,99743,400 SUNTRANA STREET,2.0,-148.563331,64.014,CI1,1848.0,6404,977,0,6368,1397,838.0,1267.0,18,7500,6350,772,11228,25850
55215,AK,2008,PR WALES-OUTER KE,AK0031-002,HOLLIS PUBLIC LIBRARY,HOLLIS,99950,NO. 1 HOLLIS SCHOOL ROAD,2.0,-132.878786,55.76289,CI1,5533.0,1600,714,0,2405,232,630.0,300.0,0,2500,6350,0,2008,10858
55216,AK,2008,KENAI PENINSULA,AK0032-002,HOMER PUBLIC LIBRARY,HOMER,99603,500 HAZEL AVENUE,2.0,-151.544372,59.63993,CI1,53409.0,133186,2704,0,32796,4467,892.0,1906.0,130,580601,6350,0,42958,629909
55217,AK,2008,KENAI PENINSULA,AK0033-002,HOPE PUBLIC LIBRARY,HOPE,99605,18487 A AVENUE,2.0,-149.636592,60.916201,CI1,53409.0,-3,-3,-3,-3,-3,-3.0,-3.0,-3,-3,-3,-3,-3,-3
55218,AK,2008,JUNEAU,AK0035-004,JUNEAU PUBLIC LIBRARIES,JUNEAU,99801,292 MARINE WAY,2.0,-134.400041,58.29759,CO1,30988.0,397401,7745,0,70174,10762,4754.0,5724.0,442,2104900,20520,110500,30580,2266500
55219,AK,2008,KENAI PENINSULA,AK0037-002,KASILOF PUBLIC LIBRARY,KASILOF,99610,58200 STERLING HIGHWAY,2.0,-151.225689,60.3424,CI1,53409.0,3080,515,0,1818,210,83.0,113.0,3,5600,6350,0,688,12638
55220,AK,2008,KENAI PENINSULA,AK0038-002,KENAI COMMUNITY LIBRARY,KENAI,99611,163 MAIN STREET LOOP,2.0,-151.244012,60.55813,CI1,53409.0,97802,3028,0,35391,2854,1963.0,3610.0,154,610030,6350,8000,5469,629849
55221,AK,2008,KETCHIKAN GATEWAY,AK0039-002,KETCHIKAN PUBLIC LIBRARY,KETCHIKAN,99901,629 DOCK STREET,2.0,-131.650775,55.34479,CO1,13142.0,132940,3016,0,60269,6617,4224.0,5998.0,181,1030068,8204,1000,35936,1075208
55222,AK,2008,KODIAK ISLAND,AK0040-002,A. HOLMES JOHNSON MEMORIAL LIBRARY,KODIAK,99615,319 LOWER MILL BAY ROAD,2.0,-152.398502,57.79393,CI2,13049.0,149572,3344,0,29898,952,5929.0,3835.0,255,699548,9518,0,4542,713608
55223,AK,2008,NORTHWEST ARCTIC,AK0041-002,CHUKCHI CONSORTIUM LIBRARY,KOTZEBUE,99752,604 THIRD STREET,2.0,-162.587444,66.89788,CI2,7502.0,19100,2912,0,3441,224,284.0,1638.0,115,80000,12700,0,76334,169034
55224,AK,2008,YUKON-KOYUKUK,AK0044-002,MCGRATH COMMUNITY SCHOOL LIBRARY,MCGRATH,99627,CHINANA AVENUE,2.0,-154.958831,62.94694,CI1,5701.0,3056,832,0,1037,1175,96.0,134.0,14,6000,6350,7000,8417,27767
55225,AK,2008,PR WALES-OUTER KE,AK0046-002,CENTENNIAL LIBRARY,METLAKATLA,99926,4TH & MILTON STREET,2.0,-131.582243,55.13203,CI1,5533.0,1815,720,0,634,21,45.0,211.0,32,44783,6350,0,400,51533
55226,AK,2008,BRISTOL BAY,AK0047-004,MARTIN MONSEN REGIONAL LIBRARY,NAKNEK,99633,101 MAIN STREET,2.0,-156.710141,58.84785,CI2,953.0,8644,3244,0,2381,460,253.0,2700.0,13,201382,12700,6000,809,220891
55227,AK,2008,YUKON-KOYUKUK,AK0048-002,NENANA PUBLIC LIBRARY,NENANA,99760,201 EAST SECOND STREET,2.0,-149.092702,64.56222,CI1,5701.0,7940,1664,0,1439,346,468.0,1626.0,11,75495,6350,17397,4101,103343
55228,AK,2008,KENAI PENINSULA,AK0051-002,NINILCHIK COMMUNITY LIBRARY,NINILCHIK,99639,15850 STERLING HIGHWAY,2.0,-151.691726,60.0275,CI1,53409.0,7161,1456,0,1604,130,492.0,2479.0,2,0,6350,0,17552,23902
55229,AK,2008,NOME,AK0052-002,KEGOAYAH KOZGA LIBRARY,NOME,99762,223 FRONT STREET,2.0,-165.40543,64.49731,CI1,9261.0,20000,2288,0,2882,525,539.0,895.0,37,194261,6350,0,2091,202702
55230,AK,2008,SE FAIRBANK,AK0053-002,NORTHWAY COMMUNITY/SCHOOL LIBRARY,NORTHWAY,99764,MILE 5 NORTHWAY ROAD,2.0,-141.945631,62.94483,CI1,6753.0,1000,576,0,590,33,0.0,210.0,36,0,6350,6000,0,12350
55231,AK,2008,MATANUSKA-SUSITNA,AK0055-002,PALMER PUBLIC LIBRARY,PALMER,99645,655 SOUTH VALLEY WAY,2.0,-149.113741,61.59847,CO1,85458.0,101577,2496,0,71615,5722,2267.0,2038.0,51,566351,6350,8170,20857,601728
55232,AK,2008,SKAGWAY-ANGOON,AK0056-002,PELICAN PUBLIC LIBRARY,PELICAN,99832,166 SALMON WAY,2.0,-136.135508,58.10796,CI1,-1.0,4397,546,0,1893,419,600.0,1731.0,37,14903,6350,0,1437,22690
55233,AK,2008,WRANGELL-PETERSBU,AK0057-002,PETERSBURG PUBLIC LIBRARY,PETERSBURG,99833,12 SOUTH NORDIC DRIVE,2.0,-132.958255,56.80848,CI1,5910.0,50622,2496,0,24817,3582,1564.0,4738.0,112,231387,6350,21445,28880,288062
55234,AK,2008,KODIAK ISLAND,AK0058-002,JESSIE WAKEFIELD MEMORIAL LIBRARY,PORT LIONS,99550,207 SPRUCE DRIVE,2.0,-152.883298,57.87453,CI1,13049.0,2197,780,0,208,0,20.0,316.0,18,16399,6350,5000,0,27749
55235,AK,2008,YUKON-KOYUKUK,AK0060-002,RUBY COMMUNITY LIBRARY,RUBY,99768,10 BOBBY KENNEDY SR. WAY,2.0,-155.71915,64.400047,CI1,5701.0,-3,-3,-3,-3,-3,-3.0,-3.0,-3,-3,-3,-3,-3,-3
55236,AK,2008,ALEUTIANS WEST,AK0061-002,ST. PAUL ISLAND SCHOOL/COMMUNITY LIBRARY,SAINT PAUL,99660,930 TOLSTOL BOULEVARD,2.0,-170.27885,57.18359,CI1,4529.0,5408,576,0,3566,442,77.0,830.0,18,20360,6350,7000,7170,40880
55237,AK,2008,KENAI PENINSULA,AK0064-002,SELDOVIA PUBLIC LIBRARY,SELDOVIA,99663,260 SELDOVIA STREET,2.0,-151.531478,59.64462,CI1,53409.0,3268,650,0,743,101,342.0,1481.0,20,0,6350,1000,1345,8695
55238,AK,2008,KENAI PENINSULA,AK0065-002,SEWARD COMMUNITY LIBRARY,SEWARD,99664,238 5TH AVENUE,2.0,-149.438759,60.10178,CI1,53409.0,89945,3172,0,15892,1252,1154.0,2195.0,75,369292,6350,2500,13295,391437
55239,AK,2008,SITKA,AK0067-002,KETTLESON MEMORIAL LIBRARY,SITKA,99835,320 HARBOR DRIVE,2.0,-135.334496,57.04958,CO1,8889.0,184964,3680,0,48823,4892,4879.0,6547.0,351,814667,11735,0,23764,850166
55240,AK,2008,SKAGWAY-ANGOON,AK0068-002,SKAGWAY PUBLIC LIBRARY,SKAGWAY,99840,769 STATE STREET,2.0,-135.308005,59.46061,CI1,-1.0,14736,2320,0,3650,422,193.0,1163.0,59,171362,6350,1000,0,178712
55241,AK,2008,KENAI PENINSULA,AK0069-002,SOLDOTNA PUBLIC LIBRARY,SOLDOTNA,99669,235 NORTH BINKLEY STREET,2.0,-151.072559,60.49234,CI1,53409.0,90988,3068,0,34523,2310,2450.0,2270.0,150,374212,6350,0,0,380562
55242,AK,2008,MATANUSKA-SUSITNA,AK0070-002,SUTTON PUBLIC LIBRARY,SUTTON,99674,11317 NORTH JONESVILLE MINE ROAD,2.0,-148.943896,61.7554,CO1,85458.0,9152,2132,0,5169,3196,940.0,1033.0,37,176467,6350,941,2730,186488
55243,AK,2008,YUKON-KOYUKUK,AK0071-002,TAKOTNA COMMUNITY LIBRARY,TAKOTNA,99675,RIVERSIDE DRIVE,2.0,-156.124971,62.97515,CI1,5701.0,1156,676,0,383,68,68.0,180.0,15,23046,6350,6000,0,35396
55244,AK,2008,MATANUSKA-SUSITNA,AK0072-002,TALKEETNA PUBLIC LIBRARY,TALKEETNA,99676,23151 SOUTH TALKEETNA SPUR ROAD,2.0,-149.889417,62.17843,CO1,85458.0,26000,2184,0,8148,854,856.0,1590.0,34,176467,6350,888,2730,186435
55245,AK,2008,YUKON-KOYUKUK,AK0073-002,TANANA COMMUNITY/SCHOOL LIBRARY,TANANA,99777,89 FRONT STREET,2.0,-151.892209,65.3268,CI1,5701.0,2230,480,0,350,217,520.0,397.0,35,5000,6350,923,9000,21273
55246,AK,2008,SKAGWAY-ANGOON,AK0074-002,DERMOTT O'TOOLE MEMORIAL LIBRARY,TENAKEE SPRINGS,99841,707 WEST TENAKEE AVENUE,2.0,-135.212133,57.77754,CI1,-1.0,1172,480,0,684,206,111.0,1559.0,2,3441,6350,0,4025,13816
55247,AK,2008,SE FAIRBANK,AK0075-002,TOK COMMUNITY LIBRARY,TOK,99780,MILE 1314 ALASKA HIGHWAY,2.0,-142.249751,63.9214,CI1,6753.0,1525,954,0,294,80,321.0,904.0,25,5000,6350,978,2125,14453
55248,AK,2008,VALDEZ-CORDOVA,AK0077-002,VALDEZ CONSORTIUM LIBRARY,VALDEZ,99686,212 FAIRBANKS STREET,2.0,-146.353761,61.12918,CI1,9362.0,30703,2654,0,5119,586,5709.0,3857.0,136,344650,6350,0,16400,367400
55249,AK,2008,MATANUSKA-SUSITNA,AK0078-002,WASILLA PUBLIC LIBRARY,WASILLA,99654,391 NORTH MAIN STREET,2.0,-149.441507,61.58256,CO1,85458.0,84096,2204,0,72384,8918,1602.0,2506.0,79,736475,6350,969,37151,780945
55250,AK,2008,MATANUSKA-SUSITNA,AK0080-002,WILLOW PUBLIC LIBRARY,WILLOW,99688,23557 WEST WILLOW COMMUNITY CENTER,2.0,-150.98442,61.67003,CO1,85458.0,27349,1904,0,10996,2201,828.0,1486.0,107,236298,6350,950,2730,246328
55251,AK,2008,WRANGELL,AK0081-002,IRENE INGLE PUBLIC LIBRARY,WRANGELL,99929,124 SECOND AVENUE,2.0,-132.378872,56.45098,CO1,5910.0,26676,1976,0,10726,675,1160.0,1952.0,74,206404,6350,0,3315,216069
55252,AK,2008,BETHEL,AK0082-002,AKIAK SCHOOL/COMMUNITY LIBRARY,AKIAK,99552,1 KILBUCK ROAD,2.0,-161.191724,60.88718,CI1,17236.0,3979,655,0,1474,2028,73.0,462.0,29,15873,6350,0,0,22223
55253,AK,2008,VALDEZ-CORDOVA,AK0085-002,FRANCES KIBBLE KENNY LAKE PUBLIC LIBRARY,KENNY LAKE,99573,MILE 5 EDGERTON HIGHWAY,2.0,-143.873988,61.66443,CI1,9362.0,3338,1014,0,784,51,335.0,1025.0,4,0,6350,0,6377,12727
55254,AK,2008,NOME,AK0087-002,KOYUK PUBLIC LIBRARY,KOYUK,99753,BIRCH STREET,2.0,-161.148928,64.939392,CI1,9261.0,-3,-3,-3,-3,-3,-3.0,-3.0,-3,-3,-3,-3,-3,-3
55255,AK,2008,BETHEL,AK0091-002,TULUKSAK SCHOOL/COMMUNITY LIBRARY,TULUKSAK,99679,PHILLIP STREET,2.0,-160.95319,61.10831,CI1,17236.0,4155,520,0,6000,335,0.0,400.0,25,27000,6350,0,0,33350
55256,AK,2008,NOME,AK0092-002,NAQIAKSRAT LIBRARY,WHITE MOUNTAIN,99784,ROCKY ROAD & FISH RIVER ROAD,2.0,-162.561429,65.00544,CI1,9261.0,3203,576,0,1064,1648,136.0,58.0,63,8674,6350,6000,0,21024
55257,AK,2008,NORTH SLOPE,AK0094-010,TUZZY CONSORTIUM LIBRARY,BARROW,99723,5421 NORTH STAR STREET,2.0,-156.75342,71.29845,CO1,6615.0,59822,7804,0,1439,2660,3847.0,6097.0,167,632746,50800,290246,212852,1186644
55258,AK,2008,BETHEL,AK0095-002,AKIACHAK SCHOOL/COMMUNITY LIBRARY,AKIACHAK,99551,1 MAIN STREET,2.0,-161.409778,60.8781,CI1,17236.0,5656,480,0,727,2535,250.0,367.0,10,10426,6350,1000,0,17776
55259,AK,2008,SKAGWAY-ANGOON,AK0097-002,ESTHER GREENWALD LIBRARY,HOONAH,99829,366 GARTEENI HIGHWAY,2.0,-135.437574,58.10915,CI1,-1.0,15150,833,0,5163,1242,85.0,970.0,26,57200,11350,5000,0,73550
55260,AK,2008,KENAI PENINSULA,AK0099-002,MOOSE PASS PUBLIC LIBRARY,MOOSE PASS,99631,200 DEPOT ROAD,2.0,-149.508366,60.52465,CI1,53409.0,2856,768,0,2135,684,389.0,1549.0,19,0,6350,788,1140,8278
55261,AK,2008,YUKON-KOYUKUK,AK0100-002,NIKOLAI COMMUNITY/SCHOOL LIBRARY,NIKOLAI,99691,TOP OF THE KUSKOKWIM SCHOOL BUILDIN,2.0,-154.374475,63.00669,CI1,5701.0,2000,500,0,161,940,80.0,120.0,20,1250,6350,5759,0,13359
55262,AK,2008,ALEUTIANS EAST,AK0101-002,SAND POINT COMMUNITY/SCHOOL LIBRARY,SAND POINT,99661,123 RED COVE ROAD,2.0,-160.487593,55.34761,CI1,2810.0,26000,765,0,26305,2699,20.0,565.0,64,45700,6350,1000,0,53050
55263,AK,2008,LAKE AND PENINSULA,AK0102-002,EGEGIK VILLAGE LIBRARY,EGEGIK,99579,289 AIRPORT WAY,2.0,-157.335327,58.17839,CI1,1488.0,1060,875,0,854,160,351.0,450.0,21,7000,6350,0,0,13350
55264,AK,2008,MATANUSKA-SUSITNA,AK0103-002,TRAPPER CREEK PUBLIC LIBRARY,TRAPPER CREEK,99683,8901 EAST DEVONSHIRE DRIVE,2.0,-150.321414,61.41243,CO1,85458.0,3547,1270,0,1962,446,954.0,950.0,37,87556,6350,0,2730,96636
55265,AK,2008,YUKON-KOYUKUK,AK0104-002,HOLY CROSS COMMUNITY/SCHOOL LIBRARY,HOLY CROSS,99602,210 TRAILWAY STREET,2.0,-160.443036,62.22932,CI1,5701.0,1000,480,0,1086,46,370.0,270.0,5,2500,6350,3000,1500,13350
55266,AK,2008,KODIAK ISLAND,AK0113-002,OUZINKIE TRIBAL MEDIA CENTER,OUZINKIE,99644,130 THIRD STREET,2.0,-152.508261,57.92122,CI1,13049.0,3540,2080,0,440,95,3.0,300.0,25,1980,6350,7885,0,16215
55267,AK,2008,ALEUTIANS WEST,AK0114-002,ST. GEORGE ISLAND SCHOOL/COMMUNITY LIBRARY,ST. GEORGE,99591,NO. 1 ELEMENTARY SCHOOL ROAD,2.0,-169.619142,56.58272,CI1,4529.0,1440,480,0,96,271,0.0,45.0,0,8496,6350,6000,4863,25709
55268,AK,2008,ALEUTIANS WEST,AK0115-002,UNALASKA PUBLIC LIBRARY,UNALASKA,99685,63 ELEANOR DRIVE,2.0,-166.529689,53.87054,CI1,4529.0,105015,3484,0,25380,5821,2179.0,14072.0,134,537635,6350,0,11405,555390
55269,AK,2008,BETHEL,AK0116-002,ANIAK PUBLIC LIBRARY,ANIAK,99557,270 RIVERFRONT DRIVE,2.0,-156.683203,61.4908,CI1,17236.0,2600,600,0,518,109,100.0,900.0,0,0,6350,7000,3052,16402
55270,AK,2008,PR WALES-OUTER,AK0117-002,HYDER PUBLIC LIBRARY,HYDER,99923,50 MAIN STREET,2.0,-130.036515,55.92994,CI1,5533.0,1250,480,0,375,273,0.0,447.0,20,0,6350,0,6000,12350
55271,AK,2008,YUKON-KOYUKUK,AK0120-002,INNOKO RIVER COMMUNITY/SCHOOL LIBRARY,SHAGELUK,99665,101 PINE STREET,2.0,-159.798143,62.64145,CI1,5701.0,2000,1000,0,890,270,25.0,190.0,12,2165,6350,4823,1000,14338
55272,AK,2008,YUKON-KOYUKUK,AK0121-002,ANVIK COMMUNITY/SCHOOL LIBRARY,ANVIK,99558,1 AIRPORT ROAD,2.0,-160.128556,63.27254,CI1,5701.0,1240,480,0,0,130,100.0,110.0,25,1250,6350,5746,4,13350
55273,AK,2008,YUKON-KOYUKUK,AK0122-002,GRAYLING COMMUNITY/SCHOOL LIBRARY,GRAYLING,99590,DAVID LOUIS SCHOOL BUILDING,2.0,-159.683027,64.07926,CI1,5701.0,1315,480,0,169,195,114.0,395.0,8,1250,6350,6014,0,13614
55274,AK,2008,PR WALES-OUTER,AK0123-001,KLAWOCK PUBLIC LIBRARY,KLAWOCK,99925,615 NORTH PARK STREET,2.0,-132.958135,55.554748,CI1,5533.0,-3,-3,-3,-3,-3,-3.0,-3.0,-3,-3,-3,-3,-3,-3
55275,AK,2008,YUKON-KOYUKUK,AK0124-002,LAKE MINCHUMINA COMMUNITY LIBRARY,LAKE MIN,99757,123 AIRPORT WAY,2.0,-152.385396,63.8005,CI1,5701.0,788,624,0,881,48,195.0,480.0,23,0,6350,0,1278,7628
55276,AK,2008,LAKE AND PENINSULA,AK0126-002,IGIUGIG TRIBAL LIBRARY,IGIUGIG,99613,1 AIRPORT ROAD,2.0,-156.48296,58.73102,CI1,1488.0,1016,490,0,922,61,167.0,398.0,13,6677,6350,7000,0,20027
55277,AK,2008,PR WALES-OUTER KE,AK0127-002,COFFMAN COVE COMMUNITY LIBRARY,COFFMAN COVE,99918,106 DENALI ALLEY,2.0,-131.696402,55.35655,CI1,5533.0,4932,2920,0,942,342,0.0,0.0,0,6500,6350,0,1350,14200
55278,AK,2008,WADE HAMPTON,AK0129-002,MOUNTAIN VILLAGE PUBLIC LIBRARY,MOUNTAIN VILLAGE,99632,1 SAINT MARY'S HIGHWAY,2.0,-164.537503,62.1696,CI1,7717.0,870,1100,0,600,40,794.0,350.0,20,0,6350,5300,0,11650
55279,AK,2008,PR WALES-OUTER KE,AK0130-002,THORNE BAY PUBLIC LIBRARY,THORNE BAY,99919,120 FREEMAN DRIVE,2.0,-132.52418,55.68823,CI1,5533.0,2417,1278,0,1281,429,123.0,855.0,17,19643,6350,1000,0,26993
55280,AK,2008,LAKE AND PENINSULA,AK0133-002,PILOT POINT TRIBAL LIBRARY,PILOT POINT,99649,2200 MAIN STREET,2.0,-157.384464,57.52567,CI1,1488.0,1357,1020,0,598,82,20.0,60.0,17,4000,6350,6000,0,16350
55281,AK,2008,PR WALES-OUTER KE,AK0134-001,WHALE PASS COMMUNITY LIBRARY,WHALE PASS,99950,BEACH ROAD LOT 3 BLOCK 14,2.0,-132.878786,55.76289,CI1,5533.0,1360,626,0,603,109,304.0,1615.0,30,0,6350,662,2156,9168
55282,AK,2008,DILLINGHAM,AK0135-001,TOGIAK PUBLIC LIBRARY AND CULTURAL CENTER,TOGIAK,99678,SECOND AVENUE AND G STREET,2.0,-160.391925,59.06007,CI1,4933.0,832,1500,0,644,75,0.0,155.0,0,300,6350,6000,17000,29650
55283,AK,2008,WADE HAMPTON,AK0136,SCAMMON BAY PUBLIC LIBRARY,SCAMMON BAY,99662,101 ASKINUK STREET,2.0,-165.080055,61.79161,CI1,7717.0,1000,1200,0,55,15,200.0,30.0,7,0,6350,6000,0,12350
55284,AL,2008,WALKER,100-000,CARL ELLIOTT REGIONAL LIBRARY SYSTEM,JASPER,35501,98 18TH STREET EAST,1.0,-87.273906,33.83339,MC1,68970.0,221158,2250,0,0,0,0.0,0.0,0,84711,112197,0,43353,240261
55285,AL,2008,WINSTON,100-001,ARLEY PUBLIC LIBRARY,ARLEY,35541,6788 COUNTY ROAD 41,1.0,-87.2234,34.04997,CI1,23974.0,7582,1820,0,1460,3038,39.0,25.0,0,23052,0,0,458,23510
55286,AL,2008,WALKER,100-002,CORDOVA PUBLIC LIBRARY,CORDOVA,35550,84 MAIN ST.,1.0,-87.182924,33.75642,CI1,68970.0,9287,1040,0,933,345,15.0,0.0,0,14212,0,0,234,14446
55287,AL,2008,WALKER,100-003,DORA PUBLIC LIBRARY,DORA,35062,1485 SHARON BLVD,1.0,-87.07569,33.743559,CI1,68970.0,-3,-3,-3,-3,-3,-3.0,-3.0,-3,-3,-3,-3,-3,-3
55288,AL,2008,WINSTON,100-004,DOUBLE SPRINGS PUBLIC LIBRARY,DOUBLE SPRINGS,35553,637 BLAKE DRIVE,1.0,-87.383461,34.14703,CI1,23974.0,5850,2236,0,3614,752,176.0,422.0,0,28674,0,0,700,29374
55289,AL,2008,WINSTON,100-005,HALEYVILLE PUBLIC LIBRARY,HALEYVILLE,35565,913 20TH STREET,1.0,-87.623386,34.2263,CI1,23974.0,5744,2496,0,4927,1539,115.0,316.0,0,63071,0,0,2155,65226
55290,AL,2008,WALKER,100-006,JASPER PUBLIC LIBRARY,JASPER,35501,98 EAST 18TH STREET,1.0,-87.273906,33.83339,CI1,68970.0,28647,2340,0,28666,801,895.0,910.0,0,182027,0,0,17006,199033
55291,AL,2008,WALKER,100-008,SUMITON PUBLIC LIBRARY,SUMITON,35148,416 STATE STREET,1.0,-87.049527,33.74957,CI1,68970.0,1272,2132,0,4220,681,49.0,0.0,0,40931,0,0,539,41470
55292,AL,2008,CLEBURNE,101-000,CHEAHA REGIONAL LIBRARY,HEFLIN,36264,935 COLEMAN STREET,1.0,-85.588945,33.64375,MC2,14799.0,1379,5640,2,28480,0,2840.0,219.0,3,7850,111576,0,4951,124377
55293,AL,2008,RANDOLPH,101-001,ROANOKE - ANNIE L. AWBREY PUBLIC LIBRARY,ROANOKE,36274,736 COLLEGE STREET,1.0,-85.370667,33.1495,CI1,22620.0,25588,2236,0,21374,1258,604.0,41.0,0,90000,8194,0,9930,108124
55294,AL,2008,CLAY,101-002,ASHLAND CITY PUBLIC LIBRARY,ASHLAND,36251,11 SECOND AVENUE NORTH,1.0,-85.837992,33.27473,CI1,13809.0,13762,2080,0,8569,1034,390.0,1232.0,9,64990,3020,0,7628,75638
55295,AL,2008,TALLADEGA,999-028,B .B. COMER MEMORIAL LIBRARY,SYLACAUGA,35150,314 NORTH BROADWAY AVENUE,1.0,-86.250724,33.17185,CI1,80279.0,72588,2808,0,73592,7644,1394.0,10.0,148,644784,7428,11930,69069,733211
55296,AL,2008,CHEROKEE,101-004,CHEROKEE COUNTY PUBLIC LIBRARY,CENTRE,35960,310 MARY STREET,1.0,-85.67641,34.14928,CO1,24545.0,27650,2000,0,12569,875,1025.0,185.0,0,130970,12000,150000,13800,306770
55297,AL,2008,TALLADEGA,101-005,CHILDERSBURG - EARLE A. RAINWATER MEMORIAL LIBRARY,CHILDERSBURG,35044,124 NINTH AVENUE SW,1.0,-86.355664,33.27752,CI1,80279.0,23131,2500,0,11434,266,2051.0,2025.0,31,116825,5650,4000,20725,147200
55298,AL,2008,TALLADEGA,101-006,LINCOLN PUBLIC LIBRARY,LINCOLN,35096,49 COMPLEX DRIVE,1.0,-86.122667,33.6044,CI1,80279.0,8958,2499,0,2403,180,285.0,306.0,5,90988,5451,4000,1088,101527
55299,AL,2008,CLAY,101-007,LINEVILLE PUBLIC LIBRARY,LINEVILLE,36266,60119 HIGHWAY 49,1.0,-85.754449,33.31468,CI1,13809.0,6286,1750,0,2153,141,594.0,0.0,3,22191,2563,0,6411,31165
55300,AL,2008,CLEBURNE,101-008,HEFLIN - LUCILE L. MORGAN PUBLIC LIBRARY,HEFLIN,36264,541 ROSS STREET,1.0,-85.587878,33.64374,CI1,14799.0,9656,1196,0,3942,53,495.0,538.0,22,28500,3887,0,1504,33891
55301,AL,2008,CALHOUN,101-009,OXFORD PUBLIC LIBRARY,OXFORD,36203,110 EAST 6TH STREET,1.0,-85.83545,33.60969,CI1,113419.0,20462,2236,0,20761,2338,2242.0,3836.0,57,359650,17351,0,0,377001
55302,AL,2008,TALLADEGA,999-070,TALLADEGA PUBLIC LIBRARY,TALLADEGA,35160,202 SOUTH STREET EAST,1.0,-86.09972,33.43313,CI1,80279.0,41540,2805,0,14690,14911,2109.0,275.0,155,410812,20303,301,14991,446407
55303,AL,2008,HENRY,999-033,ABBEVILLE MEMORIAL LIBRARY,ABBEVILLE,36310,301 KIRKLAND STREET,1.0,-85.250486,31.56676,CI1,16591.0,17646,2193,0,3566,49,697.0,401.0,0,85300,9900,50000,13819,159019
55304,AL,2008,DALE,999-075,ARITON - DOT LANEY MEMORIAL LIBRARY,ARITON,36311,30 W. MAIN STREET,1.0,-85.719461,31.60018,CI1,48292.0,1723,800,0,390,411,27.0,308.0,0,11476,889,2400,9474,24239
55305,AL,2008,HENRY,999-035,HEADLAND - BLANCHE R. SOLOMON MEMORIAL LIBRARY,HEADLAND,36345,17 PARK STREET,1.0,-85.342198,31.35231,CI1,16591.0,23015,2236,0,4048,455,1703.0,200.0,38,98113,9900,5000,2955,115968
55306,AL,2008,PIKE,999-061,BRUNDIDGE - TUPPER LIGHTFOOT MEMORIAL LIBRARY,BRUNDIDGE,36010,164 SOUTH MAIN STREET,1.0,-85.815509,31.71897,CI1,30381.0,11205,2236,0,3018,612,332.0,710.0,1,121392,8046,0,20617,150055
55307,AL,2008,DALE,999-079,OZARK - DALE COUNTY PUBLIC LIBRARY,OZARK,36360,416 JAMES STREET,1.0,-85.632774,31.45219,CO2,48292.0,106318,2132,0,24838,3073,1482.0,2470.0,0,141731,43827,11000,69236,265794
55308,AL,2008,BARBOUR,517-001,CLIO - ELTON B. STEPHENS LIBRARY,CLIO,36017,17 SCHOOL STREET,1.0,-85.612081,31.7087,CI1,29309.0,3212,1040,0,3014,20,690.0,622.0,0,7228,5722,0,1203,14153
55309,AL,2008,BARBOUR,517-003,LOUISVILLE PUBLIC LIBRARY,LOUISVILLE,36048,1951 MAIN ST.,1.0,-85.555289,31.78378,CI1,29309.0,240,1000,0,74,0,0.0,15.0,0,5000,3783,0,2030,10813
55310,AL,2008,DALE,999-077,MIDLAND CITY - MARY BERRY BROWN MEMORIAL LIBRARY,MIDLAND CITY,36350,1318 HINTON WATERS AVE,1.0,-85.489966,31.32686,CI1,48292.0,2442,1352,0,345,42,136.0,0.0,0,22807,2179,1000,2740,28726
55311,AL,2008,DALE,999-078,NEWTON PUBLIC LIBRARY,NEWTON,36352,209 OATES DRIVE,1.0,-85.596856,31.33194,CI1,48292.0,4475,1560,0,1830,0,173.0,11.0,6,20415,2783,0,509,23707
55312,AL,2008,BARBOUR,517-004,CLAYTON - TOWN AND COUNTY PUBLIC LIBRARY,CLAYTON,36016,45 NORTH MIDWAY STREET,1.0,-85.458753,31.88456,CI2,29309.0,2802,1000,0,415,44,33.0,90.0,19,15176,4756,0,9237,29169
55313,AL,2008,PIKE,999-060,TROY PUBLIC LIBRARY,TROY,36081,300 NORTH THREE NOTCH STREET,1.0,-85.97222,31.80972,CO2,30381.0,81016,2650,0,72093,4483,3552.0,2131.0,139,492033,27059,0,16886,535978
55314,AL,2008,BULLOCK,999-058,UNION SPRINGS PUBLIC LIBRARY,UNION SPRINGS,36089,103 NORTH PRAIRIE STREET,1.0,-85.716105,32.14064,CO1,10796.0,17336,1560,0,827,80,260.0,69.0,25,38800,12925,0,6308,58033
55315,AL,2008,COVINGTON,103-001,ANDALUSIA PUBLIC LIBRARY,ANDALUSIA,36420,212 SOUTH THREE NOTCH STREET,1.0,-86.482884,31.30693,CI1,36856.0,34199,2499,0,11482,2317,1425.0,1091.0,0,233887,21118,2500,6063,263568
55316,AL,2008,CRENSHAW,103-002,BRANTLEY PUBLIC LIBRARY,BRANTLEY,36009,10 MLK DR.,1.0,-86.35482,31.59088,CI1,13754.0,790,1100,0,2360,0,0.0,15.0,32,8000,1046,0,0,9046
55317,AL,2008,COFFEE,999-034,ELBA PUBLIC LIBRARY,ELBA,36323,406 SIMMONS STREET,1.0,-86.065581,31.4145,CI1,47753.0,17202,2100,0,3240,93,503.0,413.0,30,74291,11470,0,5309,91070
55318,AL,2008,GENEVA,103-004,GENEVA - EMMA KNOX KENAN PUBLIC LIBRARY,GENEVA,36340,312 SOUTH COMMERCE STREET,1.0,-85.865083,31.03622,CI1,25882.0,11844,2193,0,3421,101,264.0,140.0,25,71998,9671,0,3356,85025
55319,AL,2008,COFFEE,999-041,ENTERPRISE PUBLIC LIBRARY,ENTERPRISE,36330,101 EAST GRUBBS STREET,1.0,-85.853377,31.31367,CO2,47753.0,93928,2500,0,37360,2047,2778.0,1895.0,47,221000,43080,0,34713,298793
55320,AL,2008,COVINGTON,103-006,FLORALA PUBLIC LIBRARY,FLORALA,36442,1214 FOURTH STREET,1.0,-86.327219,31.00565,CI1,36856.0,9783,2000,0,6835,421,393.0,1317.0,44,44697,7493,0,6734,58924
55321,AL,2008,GENEVA,103-007,HARTFORD / MCGREGOR-MCKINNEY PUBLIC LIBRARY,HARTFORD,36344,101 EAST FULTON ST.,1.0,-85.696666,31.09826,CI1,25882.0,17591,2300,0,11129,865,1167.0,663.0,33,69843,7279,2993,5052,85167
55322,AL,2008,CRENSHAW,103-008,LUVERNE PUBLIC LIBRARY,LUVERNE,36049,148 EAST THIRD AVENUE,1.0,-86.261602,31.71632,CO2,13754.0,26256,1887,0,7457,826,926.0,565.0,22,100946,12078,3818,6332,123174
55323,AL,2008,COVINGTON,103-009,OPP PUBLIC LIBRARY,OPP,36467,1604 NORTH MAIN STREET,1.0,-86.25497,31.30712,CI1,36856.0,22165,2548,0,6212,2428,604.0,1112.0,49,108617,15517,10000,5971,140105
55324,AL,2008,GENEVA,103-010,SAMSON PUBLIC LIBRARY,SAMSON,36477,200 NORTH JOHNSON STREET,1.0,-86.046002,31.11811,CI1,25882.0,3788,832,0,1569,188,130.0,276.0,20,13050,6745,14491,318,34604
55325,AL,2008,GENEVA,103-011,SLOCOMB PUBLIC LIBRARY,SLOCOMB,36375,134 SOUTH DALTON AVENUE,1.0,-85.593681,31.10703,CI1,25882.0,1000,1040,0,2205,58,0.0,0.0,5,6998,1774,0,0,8772
55326,AL,2008,TALLAPOOSA,104-000,HORSESHOE BEND REGIONAL LIBRARY,DADEVILLE,36853,207 NORTH WEST STREET,1.0,-85.765401,32.83339,MC2,40773.0,473600,3212,1,10913,3258,1219.0,2563.0,26,50729,222760,3377,7172,284038
55327,AL,2008,TALLAPOOSA,104-001,ALEXANDER CITY - ADELIA MCCONNELL RUSSELL LIBRARY,ALEXANDER CITY,35010,318 CHURCH STREET,1.0,-85.95393,32.94154,CI1,40773.0,63752,5667,0,25034,3731,1841.0,3902.0,87,446460,8927,0,18914,474301
55328,AL,2008,TALLAPOOSA,104-002,DADEVILLE PUBLIC LIBRARY,DADEVILLE,36853,205 NORTH WEST STREET,1.0,-85.765401,32.83339,CO2,40773.0,17689,1750,0,4477,331,1372.0,211.0,9,51642,3087,0,10840,65569
55329,AL,2008,COOSA,104-003,GOODWATER PUBLIC LIBRARY,GOODWATER,35072,36 WEOGUFKA STREET,1.0,-86.05253,33.06383,CI1,10814.0,5434,2000,0,1068,58,372.0,1048.0,37,36493,3175,614,3960,44242
55330,AL,2008,LEE,104-004,AUBURN PUBLIC LIBRARY,AUBURN,36830,749 EAST THACH AVENUE,1.0,-85.466427,32.60441,CI1,133010.0,166326,3400,0,94799,2844,2441.0,2437.0,157,1525229,30297,0,0,1555526
55331,AL,2008,LEE,104-005,OPELIKA - LEWIS COOPER JR. MEMORIAL LIBRARY,OPELIKA,36801,200 SOUTH 6TH STREET,1.0,-85.375903,32.64908,CI1,133010.0,85069,3250,0,39447,2441,3030.0,3130.0,75,569515,14210,0,21790,605515
55332,AL,2008,ELMORE,104-006,MILLBROOK PUBLIC LIBRARY,MILLBROOK,36054,3650 GRANDVIEW ROAD,1.0,-86.361986,32.47677,CI1,78106.0,78655,2800,0,37840,2830,1642.0,1240.0,48,120134,8747,0,11859,140740
55333,AL,2008,COOSA,104-007,ROCKFORD PUBLIC LIBRARY,ROCKFORD,35136,110 MAIN STREET,1.0,-86.225611,32.87139,CI1,10814.0,1704,2550,0,558,57,65.0,265.0,15,34172,2417,0,3413,40002
55334,AL,2008,TALLAPOOSA,104-008,TALLASSEE COMMUNITY LIBRARY,TALLASSEE,36078,99 FREEMAN AVENUE,1.0,-85.879175,32.54029,CI1,40773.0,25476,1820,0,11261,1825,1437.0,883.0,12,63016,3072,0,8580,74668
55335,AL,2008,ELMORE,104-009,WETUMPKA PUBLIC LIBRARY,WETUMPKA,36092,212 SOUTH MAIN STREET,1.0,-86.206127,32.5334,CI1,78106.0,25243,2900,0,25308,806,1511.0,958.0,49,212279,4869,7528,12272,236948
55336,AL,2008,LAUDERDALE,516-001,FLORENCE-LAUDERDALE PUBLIC LIBRARY,FLORENCE,35630,350 NORTH WOOD AVENUE,1.0,-87.674645,34.80356,CO2,89128.0,236261,2754,0,98382,10586,3898.0,3057.0,135,698450,74415,11300,320639,1104804
55337,AL,2008,COLBERT,999-039,TUSCUMBIA - HELEN KELLER PUBLIC LIBRARY,TUSCUMBIA,35674,511 NORTH MAIN STREET,1.0,-87.7035,34.73655,CI2,54663.0,9725,2000,0,8921,352,1261.0,1741.0,42,110571,15080,0,10060,135711
55338,AL,2008,COLBERT,999-042,LEIGHTON PUBLIC LIBRARY,LEIGHTON,35646,8740 MAIN STREET,1.0,-87.528964,34.70015,CI2,54663.0,3820,1000,0,2249,345,114.0,404.0,19,6050,6350,0,3550,15950
55339,AL,2008,COLBERT,999-050,MUSCLE SHOALS PUBLIC LIBRARY,MUSCLE SHOALS,35661,1918 EAST AVALON AVENUE,1.0,-87.64515,34.74444,CI2,54663.0,74610,2193,0,52918,1850,1780.0,7409.0,67,474649,20413,0,33393,528455
55340,AL,2008,LAUDERDALE,516-004,ROGERSVILLE PUBLIC LIBRARY,ROGERSVILLE,35652,74 BANK STREET,1.0,-87.29206,34.82425,CO2,89128.0,25181,2080,0,13847,1227,767.0,815.0,36,86920,11900,4000,10183,113003
55341,AL,2008,COLBERT,999-066,SHEFFIELD PUBLIC LIBRARY,SHEFFIELD,35660,316 NORTH MONTGOMERY AVENUE,1.0,-87.698531,34.76144,CO2,54663.0,57000,2000,0,10225,615,2244.0,4012.0,52,222841,16301,7000,14129,260271
55342,AL,2008,MARION,106-000,NORTHWEST REGIONAL LIBRARY,WINFIELD,35594,185 ASHWOOD DRIVE,1.0,-87.815049,33.93085,MC1,29465.0,112865,2064,0,431,0,184.0,447.0,0,32011,67975,1500,1719,103205
55343,AL,2008,MARION,106-001,HAMILTON - CLYDE NIX PUBLIC LIBRARY,HAMILTON,35570,350 BEXAR AVENUE WEST,1.0,-87.992322,34.14318,CI1,29465.0,14980,2080,0,5822,120,521.0,678.0,0,50150,0,4000,1000,55150
55344,AL,2008,LAMAR,106-002,KENNEDY PUBLIC LIBRARY,KENNEDY,35574,17885 HWY. 96,1.0,-87.976044,33.58605,CI1,14295.0,331,1872,0,140,0,13.0,9.0,0,13875,0,0,0,13875
55345,AL,2008,MARION,106-003,MCHS COMMUNITY LIBRARY,GUIN,35563,8115 U.S. HIGHWAY 43,1.0,-87.89401,33.967,CI1,29465.0,13910,2300,0,5191,80,478.0,500.0,0,32267,0,6000,2550,40817
55346,AL,2008,LAMAR,106-004,MILLPORT PUBLIC LIBRARY,MILLPORT,35576,920 BLACK STREET,1.0,-88.089351,33.56156,CI1,14295.0,3629,1404,0,432,228,97.0,256.0,0,18710,0,1500,700,20910
55347,AL,2008,FRANKLIN,106-005,RUSSELLVILLE PUBLIC LIBRARY,RUSSELLVILLE,35653,110 EAST LAWRENCE STREET,1.0,-87.730263,34.50473,CI1,30801.0,5800,1600,0,4605,255,430.0,340.0,0,48300,21574,4000,2295,76169
55348,AL,2008,LAMAR,106-006,SULLIGENT PUBLIC LIBRARY,SULLIGENT,35586,514 ELM STREET,1.0,-88.13174,33.90033,CI1,14295.0,10261,2080,0,3099,178,92.0,237.0,0,45000,0,1500,0,46500
55349,AL,2008,LAMAR,106-007,VERNON - MARY WALLACE COBB MEMORIAL LIBRARY,VERNON,35592,110 FIRST AVENUE WEST,1.0,-88.109729,33.7091,CI1,14295.0,12575,2236,0,2362,1515,153.0,201.0,0,65000,0,4000,4546,73546
55350,AL,2008,FRANKLIN,106-008,RED BAY - WEATHERFORD PUBLIC LIBRARY,RED BAY,35582,307 4TH AVENUE SOUTH,1.0,-88.149203,34.41045,CI1,30801.0,8567,1300,0,2047,240,67.0,92.0,0,38055,0,1500,1050,40605
55351,AL,2008,MARION,106-009,WINFIELD PUBLIC LIBRARY,WINFIELD,35594,185 ASHWOOD DRIVE,1.0,-87.815049,33.93085,CI1,29465.0,20956,2340,0,5577,438,395.0,1660.0,0,59778,0,1500,0,61278
55352,AL,2008,LIMESTONE,107-001,ATHENS-LIMESTONE PUBLIC LIBRARY,ATHENS,35611,405 EAST SOUTH STREET,1.0,-86.963939,34.7997,CO1,76135.0,80123,2397,0,73944,3002,3523.0,1821.0,50,216246,85860,13523,145562,461191
55353,AL,2008,MORGAN,107-002,DECATUR PUBLIC LIBRARY,DECATUR,35601,"504 CHERRY ST., NE",1.0,-86.981692,34.6071,CI1,115959.0,246114,6656,0,83998,4222,3192.0,5156.0,126,440111,102885,20000,390159,953155
55354,AL,2008,MORGAN,107-003,HARTSELLE - WILLIAM BRADFORD HUIE PUBLIC LIBRARY,HARTSELLE,35640,152 SPARKMAN STREET NW,1.0,-86.934995,34.44423,CI1,115959.0,35981,2184,0,12170,550,1169.0,294.0,15,72916,25353,36000,2000,136269
55355,AL,2008,LAWRENCE,107-004,LAWRENCE COUNTY PUBLIC LIBRARY,MOULTON,35650,401 COLLEGE STREET,1.0,-87.29446,34.47587,CO1,34166.0,33017,2400,0,22087,1400,1056.0,2018.0,0,93500,38821,41863,38644,212828
55356,AL,2008,BALDWIN,500-000,BALDWIN COUNTY LIBRARY COOPERATIVE,ROBERTSDALE,36567,22251 PALMER STREET,1.0,-87.716869,30.54952,CO2,174439.0,31214,4008,1,15995,150,1097.0,496.0,7,108446,108446,7497,7539,231928
55357,AL,2008,BALDWIN,500-001,DAPHNE PUBLIC LIBRARY,DAPHNE,36526,2607 U.S. HIGHWAY 98,1.0,-87.873901,30.63231,CI1,174439.0,213962,2850,0,94459,10847,4702.0,6079.0,91,681584,22513,17950,21069,743116
55358,AL,2008,BALDWIN,500-002,FAIRHOPE PUBLIC LIBRARY,FAIRHOPE,36532,501 FAIRHOPE AVE.,1.0,-87.901851,30.52306,CI1,174439.0,153660,2652,0,59167,5366,5008.0,3246.0,154,705324,19157,0,67978,792459
55359,AL,2008,BALDWIN,999-072,FOLEY PUBLIC LIBRARY,FOLEY,36535,319 EAST LAUREL AVENUE,1.0,-87.679613,30.40637,CI1,174439.0,241525,2800,0,48255,3997,3602.0,4022.0,120,844158,15063,20000,52263,931484
55360,AL,2008,BALDWIN,500-004,BAY MINETTE PUBLIC LIBRARY,BAY MINETTE,36507,205 WEST SECOND STREET,1.0,-87.776117,30.88258,CI1,174439.0,28189,2756,0,24363,3628,2277.0,3502.0,54,277171,9122,0,4180,290473
55361,AL,2008,BALDWIN,500-005,LOXLEY PUBLIC LIBRARY,LOXLEYABAMA,36551,1001 LOXLEY AVENUE,1.0,-87.752881,30.61993,CI1,174439.0,6000,1350,0,3242,73,59.0,100.0,12,31118,1783,0,2500,35401
55362,AL,2008,BALDWIN,500-006,OSCAR JOHNSON MEMORIAL LIBRARY,SILVERHILL,36576,15965 SILVERHILL AVE.,1.0,-87.751464,30.54556,CI1,174439.0,-3,-3,-3,-3,-3,-3.0,-3.0,-3,-3,-3,-3,-3,-3
55363,AL,2008,BALDWIN,999-071,ROBERTSDALE PUBLIC LIBRARY,ROBERTSDALE,36567,18301 PENNSYLVANIA STREET,1.0,-87.71341,30.55299,CI1,174439.0,45236,2600,0,14972,3264,3193.0,1883.0,86,280958,5705,0,0,286663
55364,AL,2008,BALDWIN,500-008,GULF SHORES - THOMAS B. NORTON PUBLIC LIBRARY,GULF SHORES,36542,221 WEST 19TH AVENUE,1.0,-87.69243,30.27247,CI1,174439.0,170926,2548,0,10277,1577,4300.0,3930.0,123,523500,10446,0,12254,546200
55365,AL,2008,JEFFERSON,501-001,ADAMSVILLE PUBLIC LIBRARY,ADAMSVILLE,35005,4825 MAIN STREET,1.0,-86.953238,33.60013,CI1,659503.0,14035,2499,0,8071,835,329.0,831.0,26,89000,3664,6253,9575,108492
55366,AL,2008,JEFFERSON,501-002,BESSEMER PUBLIC LIBRARY,BESSEMER,35020,400 19TH STREET N,1.0,-86.954666,33.4032,CI1,659503.0,100895,2600,0,25306,1890,5020.0,3469.0,107,590004,23574,0,79796,693374
55367,AL,2008,JEFFERSON,501-003,MOUNTAIN BROOK - EMMET O'NEAL LIBRARY,MOUNTAIN BROOK,35213,50 OAK STREET,1.0,-86.755554,33.50099,CI1,659503.0,263858,3250,0,169754,32419,7305.0,6507.0,136,2147603,17361,0,135793,2300757
55368,AL,2008,JEFFERSON,501-004,FAIRFIELD - WALTER J. HANNA MEMORIAL LIBRARY,FAIRFIELD,35064,4615 GARY AVENUE,1.0,-86.915247,33.49128,CI1,659503.0,18321,3263,0,3745,1654,468.0,563.0,29,159999,9579,3812,5181,178571
55369,AL,2008,JEFFERSON,501-005,FULTONDALE PUBLIC LIBRARY,FULTONDALE,35068,1015 OLD WALKERS CHAPEL ROAD,1.0,-86.798343,33.60846,CI1,659503.0,10145,2500,0,3947,374,942.0,2288.0,25,231386,5728,3699,10655,251468
55370,AL,2008,JEFFERSON,501-006,GARDENDALE - MARTHA MOORE PUBLIC LIBRARY,GARDENDALE,35071,995 MT. OLIVE ROAD,1.0,-86.818643,33.6506,CI1,659503.0,138015,2800,0,54573,5222,3374.0,3769.0,60,544218,10820,1908,39805,596751
55371,AL,2008,JEFFERSON,501-007,GRAYSVILLE PUBLIC LIBRARY,GRAYSVILLE,35073,315 SOUTH MAIN STREET,1.0,-86.973327,33.62663,CI1,659503.0,9555,2080,0,5291,679,415.0,50.0,36,98700,2009,3699,4139,108547
55372,AL,2008,JEFFERSON,501-008,HOMEWOOD PUBLIC LIBRARY,HOMEWOOD,35209,1721 OXMOOR ROAD,1.0,-86.795368,33.47552,CI1,659503.0,508695,3350,0,173530,13242,6897.0,13274.0,239,2089580,19728,0,22550,2131858
55373,AL,2008,JEFFERSON,501-009,HOOVER PUBLIC LIBRARY,HOOVER,35216,200 MUNICIPAL DRIVE,1.0,-86.80588,33.3878,CI1,659503.0,636324,3450,0,621377,35011,16905.0,17081.0,196,5237460,47736,14993,323570,5623759
55374,AL,2008,JEFFERSON,501-010,HUEYTOWN PUBLIC LIBRARY,HUEYTOWN,35023,1372 HUEYTOWN ROAD,1.0,-86.997617,33.4491,CI1,659503.0,48807,2340,0,26821,1346,3248.0,1706.0,27,116786,13171,3703,10267,143927
55375,AL,2008,JEFFERSON,501-011,IRONDALE PUBLIC LIBRARY,IRONDALE,35210,105 TWENTIETH STREET SOUTH,1.0,-86.706714,33.5379,CI1,659503.0,13800,2400,0,20213,1317,944.0,1666.0,95,287572,7889,29012,26008,350481
55376,AL,2008,JEFFERSON,501-012,LEEDS - JANE CULBRETH LIBRARY,LEEDS,35094,8104 PARKWAY DRIVE,1.0,-86.561834,33.5398,CI1,659503.0,46224,2000,0,20205,1441,1946.0,2585.0,75,270021,7793,7118,21425,306357
55377,AL,2008,JEFFERSON,501-013,MIDFIELD PUBLIC LIBRARY,MIDFIELD,35228,400 BRELAND DRIVE,1.0,-86.915611,33.4576,CI1,659503.0,13764,2448,0,2875,1387,331.0,1097.0,16,84390,4352,3699,9150,101591
55378,AL,2008,JEFFERSON,501-014,PLEASANT GROVE PUBLIC LIBRARY,PLEASANT GROVE,35127,501 PARK ROAD,1.0,-86.970232,33.49061,CI1,659503.0,26576,2350,0,14647,534,1116.0,827.0,59,141342,8531,6112,16500,172485
55379,AL,2008,JEFFERSON,501-015,TARRANT PUBLIC LIBRARY,TARRANT,35217,1143 FORD AVENUE,1.0,-86.770589,33.58359,CI1,659503.0,24201,2250,0,10160,1021,460.0,852.0,82,170320,5482,3707,16521,196030
55380,AL,2008,JEFFERSON,501-016,TRUSSVILLE PUBLIC LIBRARY,TRUSSVILLE,35173,201 PARKWAY DRIVE,1.0,-86.604659,33.62651,CI1,659503.0,126775,3068,0,146575,3721,11373.0,3324.0,112,838215,14618,3305,74003,930141
55381,AL,2008,JEFFERSON,501-017,VESTAVIA HILLS PUBLIC LIBRARY,VESTAVIA HILLS,35216,1112 MONTGOMERY HIGHWAY,1.0,-86.78852,33.4369,CI1,659503.0,228649,3366,0,84038,10908,8460.0,4879.0,154,1289317,25741,7444,38000,1360502
55382,AL,2008,JEFFERSON,501-018,WARRIOR PUBLIC LIBRARY,WARRIOR,35180,101 FIRST STREET,1.0,-86.807909,33.8134,CI1,659503.0,16467,2450,0,12845,1198,118.0,155.0,35,100773,2496,0,10618,113887
55383,AL,2008,JEFFERSON,501-019,BIRMINGHAM PUBLIC LIBRARY,BIRMINGHAM,35203,2100 PARK PLACE,1.0,-86.80784,33.52058,CI1,659503.0,2197460,47688,0,358620,49888,29770.0,49814.0,1794,15990467,223763,78380,1869314,18161924
55384,AL,2008,DEKALB,504-000,FORT PAYNE - DEKALB COUNTY PUBLIC LIBRARY,FORT PAYNE,35967,504 GRAND AVENUE NW,1.0,-85.720235,34.44492,CI2,68515.0,53974,3568,1,39554,1235,2056.0,1246.0,40,195000,69290,6217,29867,300374
55385,AL,2008,DEKALB,504-001,COLLINSVILLE PUBLIC LIBRARY,COLLINSVILLE,35961,4299 ALABAMA HIGHWAY 68,1.0,-85.879432,34.27868,CI1,68515.0,8329,1400,0,674,60,349.0,443.0,7,45451,1990,6491,59219,113151
55386,AL,2008,DEKALB,504-002,GERALDINE PUBLIC LIBRARY,GERALDINE,35974,13543 ALABAMA HIGHWAY 227,1.0,-86.024644,34.36257,CI1,68515.0,5765,1734,0,1128,335,1018.0,926.0,0,29000,912,4000,2432,36344
55387,AL,2008,DEKALB,504-003,RAINSVILLE PUBLIC LIBRARY,RAINSVILLE,35986,941 EAST MAIN STREET,1.0,-85.82901,34.48679,CI1,68515.0,33925,2589,0,19413,1553,2134.0,1052.0,20,163963,5773,5000,21556,196292
55388,AL,2008,ESCAMBIA,505-000,ESCAMBIA COUNTY COOPERATIVE LIBRARY SYSTEM,ATMORE,36502,700 EAST CHURCH STREET,1.0,-87.485677,31.02261,CO1,37490.0,81356,1820,0,2983,0,12.0,258.0,6,24000,27859,0,13574,65433
55389,AL,2008,ESCAMBIA,505-001,ATMORE PUBLIC,ATMORE,36502,700 E. CHURCH STREET,1.0,-87.485677,31.02261,CI1,37490.0,37420,2250,0,18155,1549,1368.0,444.0,40,234313,8871,11570,33591,288345
55390,AL,2008,ESCAMBIA,505-002,BREWTON PUBLIC LIBRARY,BREWTON,36426,206 WEST JACKSON STREET,1.0,-87.070522,31.12027,CI1,37490.0,48600,2600,0,42833,2372,2848.0,4735.0,103,328616,6312,10924,66717,412569
55391,AL,2008,ESCAMBIA COUNTY,505-003,FLOMATON PUBLIC LIBRARY,FLOMATON,36441,608 MCCURDY STREET,1.0,-87.260156,31.00409,CI1,37490.0,26496,2450,0,22214,528,1574.0,352.0,31,104325,1833,7000,12672,125830
55392,AL,2008,ETOWAH,506-000,GADSDEN - ETOWAH COUNTY PUBLIC LIBRARY,GADSDEN,35901,254 COLLEGE STREET,1.0,-86.009857,34.01248,CO2,103303.0,351160,8550,0,66927,3080,5714.0,4913.0,122,1397497,88323,25000,94635,1605455
55393,AL,2008,ETOWAH,999-082,ATTALLA - ETOWAH COUNTY PUBLIC LIBRARY,ATTALLA,35954,604 NORTH 4TH STREET,1.0,-86.08743,34.02416,CI2,103303.0,14000,2444,0,2845,325,148.0,27.0,67,173240,7650,0,2528,183418
55394,AL,2008,ETOWAH,506-002,RAINBOW CITY PUBLIC LIBRARY,RAINBOW CITY,35906,3702 RAINBOW DRIVE,1.0,-86.059341,33.94185,CI1,103303.0,83973,2800,0,54403,2095,2968.0,2132.0,71,339038,10666,0,0,349704
55395,AL,2008,MARENGO,508-001,DEMOPOLIS PUBLIC LIBRARY,DEMOPOLIS,36732,211 E. WASHINGTON STREET,1.0,-87.836155,32.51734,CI1,21055.0,64957,2050,1,19725,1883,1596.0,441.0,83,311694,8628,0,11660,331982
55396,AL,2008,MARENGO,508-002,MARENGO COUNTY PUBLIC LIBRARY,LINDEN,36748,507 NORTH MAIN,1.0,-87.798093,32.3112,CI1,21055.0,12129,1750,0,2972,560,328.0,236.0,4,80882,7461,8393,2918,99654
55397,AL,2008,MARSHALL,509-000,MARSHALL COUNTY COOPERATIVE LIBRARY,ALBERTVILLE,35950,600 COLLEGE STREET,1.0,-86.210157,34.25726,CO1,88484.0,4222,1560,1,6021,0,269.0,437.0,0,22736,49744,0,527,73007
55398,AL,2008,MARSHALL,509-001,ARAB PUBLIC LIBRARY,ARAB,35016,325 2ND STREET NW,1.0,-86.49695,34.32038,CI1,88484.0,20815,2142,0,24374,942,2086.0,2161.0,55,194838,9024,0,10000,213862
55399,AL,2008,MARSHALL,509-002,BOAZ PUBLIC LIBRARY,BOAZ,35957,404 THOMAS AVE.,1.0,-86.161797,34.20079,CI1,88484.0,27054,2900,0,30686,3092,1681.0,1979.0,67,254953,8755,0,0,263708
55400,AL,2008,MARSHALL,509-003,GUNTERSVILLE PUBLIC LIBRARY,GUNTERSVILLE,35976,1240 O'BRIG AVENUE,1.0,-86.302149,34.34911,CI1,88484.0,23800,2236,0,15296,3423,1727.0,1709.0,87,279500,9113,4500,35890,329003
55401,AL,2008,MARSHALL,509-004,ALBERTVILLE PUBLIC LIBRARY,ALBERTVILLE,35950,200 JACKSON STREET,1.0,-86.203086,34.26443,CI1,88484.0,66513,2450,0,27842,621,2198.0,2704.0,0,273808,22780,0,12639,309227
55402,AL,2008,SHELBY,510-000,HARRISON REGIONAL LIBRARY SYSTEM,COLUMBIANA,35051,50 LESTER STREET,1.0,-86.607628,33.18538,CO2,187784.0,13999,5340,0,405,0,1550.0,1079.0,0,320500,56462,32250,17750,426962
55403,AL,2008,SHELBY,510-001,ALABASTER - ALBERT L. SCOTT LIBRARY,ALABASTER,35007,100 9TH STREET N.W.,1.0,-86.82663,33.24435,CI1,187784.0,94642,3100,0,64579,4365,2195.0,4398.0,119,743785,28449,0,8000,780234
55404,AL,2008,SHELBY,510-002,CALERA PUBLIC LIBRARY,CALERA,35040,9700 HIGHWAY 25,1.0,-86.76935,33.09693,CI1,187784.0,24424,3141,0,30489,4680,1289.0,2033.0,0,336300,8787,0,5000,350087
55405,AL,2008,SHELBY,510-003,COLUMBIANA PUBLIC LIBRARY,COLUMBIANA,35051,50 LESTER STREET,1.0,-86.607628,33.18538,CI1,187784.0,54729,2600,0,21309,1653,830.0,1919.0,28,178943,3773,2000,13167,197883
55406,AL,2008,SHELBY,510-004,HELENA - JANE B. HOLMES PUBLIC LIBRARY,HELENA,35080,230 TUCKER ROAD,1.0,-86.842523,33.2897,CI1,187784.0,46350,2350,0,53475,1892,3341.0,6016.0,40,249986,16348,0,28619,294953
55407,AL,2008,SHELBY,510-005,VINCENT - LALLOUISE F. MCGRAW LIBRARY,VINCENT,35178,42860 HIGHWAY 25,1.0,-86.416809,33.40527,CI1,187784.0,5002,1456,0,1938,150,276.0,602.0,0,61651,2194,0,2325,66170
55408,AL,2008,SHELBY,510-006,MONTEVALLO - PARNELL MEMORIAL LIBRARY,MONTEVALLO,35115,277 PARK DRIVE,1.0,-86.858792,33.10179,CI1,187784.0,25880,2265,0,14003,4739,588.0,1646.0,29,382442,5239,0,29003,416684
55409,AL,2008,SHELBY,510-007,PELHAM PUBLIC LIBRARY,PELHAM,35124,3160 PELHAM PARKWAY,1.0,-86.810842,33.28794,CI1,187784.0,175815,3068,0,132900,8559,2800.0,4536.0,45,999004,23845,10000,60762,1093611
55410,AL,2008,SHELBY,510-008,WILSONVILLE - VERNICE STOUDENMIRE LIBRARY,WILSONVILLE,35186,MAIN STREET,1.0,-86.506998,33.22778,CI1,187784.0,1857,1300,0,680,21,320.0,347.0,0,23177,1799,0,126,25102
55411,AL,2008,SHELBY,AL8003 - 1,NORTH SHELBY LIBRARY,BIRMINGHAM,35242,5521 CAHABA VALLEY ROAD,1.0,-86.681969,33.4042,OTH,187784.0,142000,2704,0,106438,8740,1597.0,2737.0,50,853985,47948,5000,138832,1045765
55412,AL,2008,PICKENS,511-001,ALICEVILLE PUBLIC LIBRARY,ALICEVILLE,35442,416 THIRD AVENUE NE,1.0,-88.147839,33.12936,CI1,19524.0,13430,1800,0,3802,1214,810.0,1084.0,30,49000,2927,0,18715,70642
55413,AL,2008,PICKENS,511-002,CARROLLTON PUBLIC LIBRARY,CARROLLTON,35447,225 COMMERCE AVENUE,1.0,-88.09437,33.2571,CI1,19524.0,7287,1350,0,5622,805,542.0,1539.0,3,8000,1134,20000,19308,48442
55414,AL,2008,PICKENS,511-003,GORDO - RUTH HOLLIMAN MEMORIAL PUBLIC LIBRARY,GORDO,35466,287 MAIN STREET SOUTH,1.0,-87.903085,33.31819,CI1,19524.0,10423,1508,0,5885,749,197.0,606.0,0,20800,1894,0,7955,30649
55415,AL,2008,PICKENS,511-004,REFORM PUBLIC LIBRARY,REFORM,35481,302 FIRST STREET SOUTH,1.0,-88.015961,33.3767,CI1,19524.0,6862,1700,0,2700,829,304.0,284.0,24,32042,2192,0,5779,40013
55416,AL,2008,ST. CLAIR,512-000,ST. CLAIR COUNTY LIBRARY,ASHVILLE,35953,139 5TH AVENUE,1.0,-86.252711,33.83726,CO2,79837.0,8493,2912,0,2447,96,232.0,846.0,19,84894,72866,10000,11418,179178
55417,AL,2008,ST. CLAIR,512-001,ASHVILLE PUBLIC LIBRARY,ASHVILLE,35953,196 SIXTH AVENUE,1.0,-86.253868,33.8365,CI1,79837.0,4143,1560,0,1867,237,0.0,407.0,5,24936,3935,4000,2000,34871
55418,AL,2008,ST. CLAIR,512-002,MOODY - DORIS STANLEY MEMORIAL LIBRARY,MOODY,35004,1515 BOOKMARK LANE,1.0,-86.485327,33.59208,CI1,79837.0,19179,2000,0,11129,2128,281.0,712.0,33,90508,7827,7324,12488,118147
55419,AL,2008,ST. CLAIR,512-003,ODENVILLE PUBLIC LIBRARY,ODENVILLE,35120,200 ALABAMA STREET,1.0,-86.396318,33.68291,CI1,79837.0,19726,1820,0,5164,1309,856.0,1382.0,5,63181,3523,16440,4227,87371
55420,AL,2008,ST. CLAIR,999-031,PELL CITY PUBLIC LIBRARY,PELL CITY,35125,1923 1ST AVENUE NORTH,1.0,-86.285981,33.5872,CI1,79837.0,54850,2652,0,30023,1895,1309.0,886.0,0,260172,16276,20000,22965,319413
55421,AL,2008,SUMTER,513-001,YORK - HIGHTOWER MEMORIAL LIBRARY,YORK,36925,602 2ND AVENUE,1.0,-88.296343,32.4864,CI1,13266.0,3700,1150,0,1217,0,96.0,145.0,16,19564,3785,0,7879,31228
55422,AL,2008,SUMTER,513-002,LIVINGSTON - RUBY PICKENS TARTT PUBLIC LIBRARY,LIVINGSTON,35470,206 MONROE STREET,1.0,-88.189306,32.5843,CI1,13266.0,18380,2300,0,7327,511,988.0,461.0,41,118485,9644,6235,14435,148799
55423,AL,2008,CALHOUN,514-001,ANNISTON - CALHOUN COUNTY PUBLIC LIBRARY,ANNISTON,36201,108 EAST 10TH STREET,1.0,-85.828184,33.65709,CO2,113419.0,95232,5337,1,52887,3084,3128.0,1896.0,112,679767,94821,15000,104294,893882
55424,AL,2008,CALHOUN,514-002,JACKSONVILLE PUBLIC LIBRARY,JACKSONVILLE,36265,200 PELHAM ROAD SOUTH,1.0,-85.761243,33.81522,CO1,113419.0,44759,2600,0,37884,3088,593.0,2048.0,56,438278,10802,0,0,449080
55425,AL,2008,CALHOUN,514-003,PIEDMONT PUBLIC LIBRARY,PIEDMONT,36272,106 N MAIN STREET,1.0,-85.613567,33.92345,CI1,113419.0,24685,2132,0,9999,1618,1020.0,977.0,27,105411,5935,0,1722,113068
55426,AL,2008,HALE,999-001,AKRON PUBLIC LIBRARY,AKRON,35441,207 FIRST AVENUE SOUTH,1.0,-87.722532,32.84956,CI1,18145.0,454,856,0,437,21,81.0,55.0,0,3075,2457,0,95,5627
55427,AL,2008,HOUSTON,999-002,DOTHAN / HOUSTON-LOVE MEMORIAL LIBRARY,DOTHAN,36303,212 WEST BURDESHAW STREET,1.0,-85.394347,31.22795,CO1,98488.0,182097,6113,2,65088,2501,1712.0,2688.0,120,589430,113373,69109,164667,936579
55428,AL,2008,BLOUNT,999-003,BLOUNTSVILLE PUBLIC LIBRARY,BLOUNTSVILLE,35031,65 CHESTNUT STREET,1.0,-86.589984,34.07894,CI2,57441.0,46000,2499,0,15549,824,278.0,1267.0,36,92333,15288,0,4309,111930
55429,AL,2008,COLBERT,999-004,CHEROKEE PUBLIC LIBRARY,CHEROKEE,35616,118 CHURCH STREET,1.0,-87.972203,34.756,CI2,54663.0,3380,1600,0,6065,71,639.0,283.0,33,12500,6763,0,5996,25259
55430,AL,2008,BIBB,999-005,BRENT-CENTREVILLE PUBLIC LIBRARY,CENTREVILLE,35042,20 LIBRARY STREET,1.0,-87.150862,32.94501,CO1,21629.0,37092,2200,0,11303,523,1135.0,2232.0,36,30653,21383,0,13164,65200
55431,AL,2008,CHILTON,999-006,CHILTON - CLANTON PUBLIC LIBRARY,CLANTON,35045,100 FIRST AVENUE,1.0,-86.624538,32.84072,CO1,42444.0,40555,8516,0,15006,668,551.0,1698.0,0,154221,49721,3543,32491,239976
55432,AL,2008,CHOCTAW,999-007,CHOCTAW COUNTY PUBLIC LIBRARY,BUTLER,36904,124 NORTH ACADEMY AVENUE,1.0,-88.220066,32.09019,CO1,14055.0,25721,3992,0,8759,615,3678.0,6754.0,29,52333,17368,10000,197452,277153
55433,AL,2008,MOBILE,999-008,CITRONELLE MEMORIAL LIBRARY,CITRONELLE,36522,7855 STATE STREET,1.0,-88.228948,31.09091,CI1,406309.0,10028,1500,0,1100,300,231.0,238.0,33,94000,4399,0,2000,100399
55434,AL,2008,CLARKE,999-009,GROVE HILL PUBLIC LIBRARY,GROVE HILL,36451,108 DUBOSE AVENUE,1.0,-87.775112,31.70534,CI1,26304.0,7233,1716,0,1847,160,136.0,249.0,40,22000,7177,1000,16000,46177
55435,AL,2008,MADISON,999-010,HUNTSVILLE-MADISON COUNTY PUBLIC LIBRARY,HUNTSVILLE,35801,915 MONROE STREET,1.0,-86.590277,34.72336,CO1,319510.0,955993,27024,2,867369,57473,46106.0,54914.0,1142,5100783,360654,40428,943924,6445789
55436,AL,2008,GREENE,999-011,EUTAW - JAMES C. POOLE JR. MEMORIAL LIBRARY,EUTAW,35462,420 PRAIRIE AVENUE,1.0,-87.88783,32.84269,CO1,9172.0,17230,2140,0,4646,414,172.0,72.0,31,27028,10863,5600,16046,59537
55437,AL,2008,BUTLER,999-012,GREENVILLE - BUTLER COUNTY PUBLIC LIBRARY,GREENVILLE,36037,309 FT. DALE STREET,1.0,-86.626174,31.8319,CO1,20090.0,46500,2400,0,8092,671,1700.0,1033.0,17,181345,24320,1132,27696,234493
55438,AL,2008,HALE,999-013,HALE COUNTY LIBRARY,GREENSBORO,36744,1103 MAIN STREET,1.0,-87.592238,32.70406,CI1,18145.0,9321,1632,0,2021,202,454.0,795.0,20,10101,10608,0,24287,44996
55439,AL,2008,MOBILE,999-014,CHICKASAW - INA PULLEN SMALLWOOD MEMORIAL LIBRARY,CHICKASAW,36611,224 GRANT STREET,1.0,-88.078362,30.76494,CI1,406309.0,18927,1800,0,1409,110,1855.0,3282.0,91,43000,7160,0,1998,52158
55440,AL,2008,CLARKE,999-015,JACKSON - WHITE SMITH MEMORIAL LIBRARY,JACKSON,36545,213 COLLEGE AVENUE,1.0,-87.893736,31.51237,CI1,26304.0,13674,2100,0,5588,1210,707.0,1025.0,17,170650,12581,0,223835,407066
55441,AL,2008,PERRY,999-016,MARION-PERRY COUNTY LIBRARY,MARION,36756,202 WASHINGTON STREET,1.0,-87.31907,32.63421,CO2,10643.0,11298,3160,0,1368,1340,2213.0,1190.0,41,41005,8172,7861,8096,65134
55442,AL,2008,JACKSON,999-017,WOODVILLE PUBLIC LIBRARY,WOODVILLE,35776,26 VENSON STREET,1.0,-86.274704,34.62723,CI1,53134.0,4141,1600,0,4353,580,35.0,171.0,25,28140,899,12000,7107,48146
55443,AL,2008,MOBILE,999-018,CITY OF BAYOU LA BATRE PUBLIC LIBRARY,IRVINGTON,36509,12747 PADGETT SWITCH ROAD,1.0,-88.241606,30.4252,CI1,406309.0,5029,2000,0,16403,7,0.0,214.0,0,36140,2700,0,6415,45255
55444,AL,2008,JACKSON,999-019,SCOTTSBORO PUBLIC LIBRARY,SCOTTSBORO,35768,1002 SOUTH BROAD STREET,1.0,-86.035173,34.65779,CI2,53134.0,64250,2496,0,16506,850,1873.0,1593.0,60,147000,63697,0,28475,239172
55445,AL,2008,BLOUNT,999-020,ONEONTA PUBLIC LIBRARY,ONEONTA,35121,221 SECOND STREET SOUTH,1.0,-86.475671,33.9445,CO2,57441.0,64272,2450,0,45426,4450,1982.0,1548.0,103,255022,50419,8000,28528,341969
55446,AL,2008,CLARKE,999-021,THOMASVILLE PUBLIC LIBRARY,THOMASVILLE,36784,1401 MOSLEY DRIVE,1.0,-87.736905,31.9319,CI1,26304.0,33721,2496,0,9971,1813,560.0,918.0,37,136773,11745,4000,14078,166596
55447,AL,2008,MACON,999-022,MACON COUNTY - TUSKEGEE PUBLIC LIBRARY,TUSKEGEE,36083,302 SOUTH MAIN STREET,1.0,-85.689058,32.42189,CO1,22290.0,18038,1852,0,9581,798,2880.0,297.0,15,235000,24891,0,148,260039
55448,AL,2008,HALE,999-023,MOUNDVILLE PUBLIC LIBRARY,MOUNDVILLE,35474,410 MARKET STREET,1.0,-87.631279,32.99839,CI1,18145.0,4064,2000,0,2460,433,153.0,347.0,6,27955,7971,7000,319,43245
55449,AL,2008,PERRY,999-024,UNIONTOWN PUBLIC LIBRARY,UNIONTOWN,36786,108 WATER STREET,1.0,-87.523784,32.41158,CI1,10643.0,3554,2100,0,1898,192,164.0,105.0,0,24000,4995,0,2702,31697
55450,AL,2008,MOBILE,999-025,PRICHARD PUBLIC LIBRARY,PRICHARD,36610,300 WEST LOVEJOY LOOP,1.0,-88.083931,30.73224,CI1,406309.0,16002,2980,0,6781,1950,1426.0,1300.0,24,141546,33364,10000,28291,213201
55451,AL,2008,WASHINGTON,999-026,WASHINGTON COUNTY PUBLIC LIBRARY,CHATOM,36518,14102 ST. STEPHENS AVE.,1.0,-88.209143,31.4529,CO1,17204.0,28707,3210,1,13999,2859,2147.0,757.0,51,36600,21419,25810,340653,424482
55452,AL,2008,CONECUH,999-030,EVERGREEN PUBLIC LIBRARY,EVERGREEN,36401,119 CEMETERY AVENUE,1.0,-86.954008,31.43397,CO1,13066.0,14200,2236,0,10828,0,1808.0,2074.0,13,168354,15885,3907,16571,204717
55453,AL,2008,MOBILE,999-032,MOBILE PUBLIC LIBRARY,MOBILE,36602,701 GOVERNMENT STREET,1.0,-88.050459,30.68722,CO2,406309.0,1369611,21722,1,455603,46198,65620.0,52813.0,884,7591182,422739,60000,898709,8972630
55454,AL,2008,MONTGOMERY,999-036,MONTGOMERY CITY-COUNTY PUBLIC LIBRARY,MONTGOMERY,36104,245 HIGH STREET,1.0,-86.305395,32.37188,CO1,224810.0,808011,23020,0,152887,20783,14976.0,6108.0,928,4490975,264968,20000,170708,4946651
55455,AL,2008,LOWNDES,999-037,WHITE HALL PUBLIC LIBRARY,WHITE HALL,36040,640 FREEDOM ROAD,1.0,-86.712635,32.3016,CI1,12644.0,403,1040,0,1352,70,360.0,192.0,0,10770,3278,0,5000,19048
55456,AL,2008,JACKSON COUNTY,999-040,STEVENSON PUBLIC LIBRARY,STEVENSON,35772,102 WEST MAIN STREET,1.0,-85.836287,34.8703,CI1,53134.0,2500,1250,0,1979,83,13.0,680.0,0,35260,2543,0,3599,41402
55457,AL,2008,LAUDERDALE,516-002,KILLEN PUBLIC LIBRARY,KILLEN,35645,325 J. C. MAULDIN HIGHWAY,1.0,-87.547366,34.85742,CI1,89128.0,10150,2300,0,2704,250,522.0,88.0,0,32222,9300,4000,1000,46522
55458,AL,2008,LAUDERDALE,516-003,LEXINGTON - BURCHELL CAMPBELL MEMORIAL LIBRARY,LEXINGTON,35648,11075 HIGHWAY 101,1.0,-87.371204,34.9686,CI2,89128.0,4305,1196,0,4048,625,397.0,112.0,1,26668,5950,10000,0,42618
55459,AL,2008,AUTAUGA,999-043,AUTAUGA - PRATTVILLE PUBLIC LIBRARY,PRATTVILLE,36067,254 DOSTER STREET,1.0,-86.468856,32.45693,CO1,50364.0,224870,6388,0,56007,9980,1728.0,2167.0,128,450000,58938,9500,206986,725424
55460,AL,2008,FAYETTE,999-044,FAYETTE COUNTY MEMORIAL LIBRARY,FAYETTE,35555,326 TEMPLE AVENUE NORTH,1.0,-87.830805,33.68862,CO1,17691.0,31403,2400,0,11512,2811,4764.0,3883.0,79,40100,19413,0,119999,179512
55461,AL,2008,RUSSELL COUNTY,999-045,PHENIX CITY-RUSSELL CO PUB. LIBRARY,PHENIX CITY,36867,1501 17TH AVENUE,1.0,-85.016045,32.475,CO1,50504.0,61679,2800,0,10812,6030,448.0,2276.0,95,165750,77359,0,33000,276109
55462,AL,2008,DALLAS,999-046,SELMA-DALLAS COUNTY PUBLIC LIBRARY,SELMA,36703,1103 SELMA AVENUE,1.0,-87.020437,32.40904,CI1,42867.0,108290,2500,0,49500,9580,1170.0,2150.0,40,431022,54666,16000,173632,675320
55463,AL,2008,TUSCALOOSA,999-047,TUSCALOOSA PUBLIC LIBRARY,TUSCALOOSA,35401,1801 JACK WARNER PARKWAY,1.0,-87.561937,33.21636,CO1,179448.0,425847,9848,1,251633,17775,11986.0,17853.0,411,3050000,202852,3552,266721,3523125
55464,AL,2008,WILCOX,999-048,WILCOX COUNTY LIBRARY,CAMDEN,36726,100 BROAD STREET,1.0,-87.289077,31.99046,CO1,12803.0,9401,3510,0,11592,254,1150.0,518.0,29,108533,15567,6012,2844,132956
55465,AL,2008,MONROE,999-049,MONROE COUNTY PUBLIC LIBRARY,MONROEVILLE,36460,121 PINEVILLE ROAD,1.0,-87.324371,31.52798,CO1,22553.0,49351,2040,0,20557,5975,1134.0,566.0,23,86250,27664,15756,48468,178138
55466,AL,2008,CULLMAN,999-051,CULLMAN COUNTY PUBLIC LIBRARY SYSTEM,CULLMAN,35055,200 CLARK STREET NE,1.0,-86.842599,34.17913,CO1,81324.0,80950,8665,1,43653,3484,3660.0,4215.0,130,431034,95035,4500,18197,548766
55467,AL,2008,CHAMBERS,999-052,H. GRADY BRADSHAW / CHAMBERS COUNTY LIBRARY,VALLEY,36854,3419 20TH AVENUE,1.0,-85.177663,32.83876,CO1,34424.0,94786,3903,0,39333,7215,5235.0,4271.0,5,83439,51189,0,650131,784759
55468,AL,2008,ETOWAH,999-081,HOKES BLUFF - RUFUS FLOYD PUBLIC LIBRARY,HOKES BLUFF,35903,3310 ALFORDS BEND ROAD,1.0,-85.866027,33.99177,CI1,103303.0,10912,1650,0,2265,319,431.0,0.0,23,16788,6331,0,15871,38990
55469,AL,2008,ST. CLAIR,512-004,RAGLAND PUBLIC LIBRARY,RAGLAND,35131,738 MAIN STREET,1.0,-86.153776,33.74267,CI1,79837.0,4321,1352,0,3642,149,17.0,789.0,4,15920,3935,4000,2000,25855
55470,AL,2008,LOWNDES,999-063,HAYNEVILLE/LOWNDES CO. PUB. LIBRARY,HAYNEVILLE,36040,4 WASHINGTON STREET,1.0,-86.579938,32.18395,CO2,12644.0,7666,1144,0,7400,239,280.0,210.0,14,23100,8291,0,1055,32446
55471,AL,2008,DEKALB,504-004,IDER PUBLIC LIBRARY,IDER,35981,10808 ALABAMA HIGHWAY 75,1.0,-85.650998,34.72926,CI1,68515.0,4590,1020,0,913,0,80.0,504.0,9,9062,709,0,565,10336
55472,AL,2008,BARBOUR COUNTY,517-002,EUFAULA CARNEGIE LIBRARY,EUFAULA,36027,217 NORTH EUFAULA AVENUE,1.0,-85.145646,31.8951,CO2,29309.0,40176,2650,0,11021,2312,1154.0,1879.0,75,315066,18977,0,31785,365828
55473,AL,2008,MARSHALL,509-005,GRANT PUBLIC LIBRARY,GRANT,35747,5379 MAIN STREET,1.0,-86.252925,34.52667,CI1,88484.0,7000,1600,0,2879,415,172.0,303.0,2,26256,689,4000,352,31297
55474,AL,2008,DALE,999-076,DALEVILLE PUBLIC LIBRARY,DALEVILLE,36322,308 DONNELL BOULEVARD,1.0,-85.706778,31.31651,CI1,48292.0,26673,2100,0,5277,598,1004.0,2510.0,51,67703,7746,7000,30712,113161
55475,AL,2008,LAWRENCE,107-005,COURTLAND PUBLIC LIBRARY,COURTLAND,35618,215 COLLEGE STREET,1.0,-87.310339,34.6734,CO2,34166.0,5944,1000,0,1191,295,142.0,57.0,10,38000,1716,0,425,40141
55476,AL,2008,MORGAN,107-006,EVA PUBLIC LIBRARY,EVA,35621,4549 HIGHWAY 55 EAST,1.0,-86.772281,34.33376,CI1,115959.0,6659,1000,0,5018,887,596.0,564.0,0,35596,542,4000,3159,43297
55477,AL,2008,DEKALB,504-005,CROSSVILLE PUBLIC LIBRARY,CROSSVILLE,35962,80 GAINES STREET,1.0,-85.992847,34.28692,CI1,68515.0,4196,2028,0,1575,833,391.0,52.0,4,21540,1729,0,18453,41722
55478,AL,2008,ETOWAH,999-083,WESTSIDE PUBLIC LIBRARY,WALNUT GROVE,35990,5151 WALNUT GROVE ROAD,1.0,-86.324385,34.0275,CI2,103303.0,3265,1000,0,242,22,98.0,82.0,5,32000,728,0,583,33311
55479,AL,2008,BALDWIN COUNTY,500-009,ORANGE BEACH PUBLIC LIBRARY,ORANGE BEACH,36561,26267 CANAL ROAD,1.0,-87.57485,30.29205,CI1,174439.0,88069,2805,0,24450,2740,3548.0,3271.0,58,678362,6541,7230,8379,700512
55480,AL,2008,MOBILE,999-073,SATSUMA PUBLIC LIBRARY,SATSUMA,36572,5466 OLD HIGHWAY 43,1.0,-88.059806,30.84506,CI1,406309.0,7825,2142,0,2489,685,313.0,59.0,8,71469,7100,53088,13096,144753
55481,AL,2008,MORGAN,107-007,FALKVILLE PUBLIC LIBRARY,FALKVILLE,35622,7 NORTH 1ST AVE.,1.0,-86.902185,34.33569,CI1,115959.0,6800,1664,0,1998,271,115.0,256.0,0,37873,1899,4000,2850,46622
55482,AL,2008,ST. CLAIR,512-007,SPRINGVILLE PUBLIC LIBRARY,SPRINGVILLE,35146,6496 U.S. HIGHWAY 11,1.0,-86.447913,33.77647,CI1,79837.0,13486,2444,0,11570,880,369.0,1591.0,11,63428,4664,4000,4048,76140
55483,AL,2008,JACKSON,999-074,BRIDGEPORT - LENA CAGLE PUBLIC LIBRARY,BRIDGEPORT,35740,401 ALABAMA AVENUE,1.0,-85.717395,34.947,CI1,53134.0,7500,1989,0,2805,245,21.0,430.0,11,37217,3203,0,7763,48183
55484,AL,2008,BIBB,999-080,WEST BLOCTON PUBLIC LIBRARY,WEST BLOCTON,35184,62 WALTER OWENS DRIVE,1.0,-87.15748,33.0818,CI1,21629.0,2646,1275,0,886,507,166.0,422.0,5,21097,1682,1000,1790,25569
55485,AL,2008,WALKER,100-009,CARBON HILL CITY LIBRARY,CARBON HILL,35549,215 NW 2ND STREET,1.0,-87.528916,33.88992,CI1,68970.0,1595,832,0,859,412,16.0,29.0,0,4341,0,0,11589,15930
55486,AL,2008,CALHOUN,OHATCHEE,OHATCHEE PUBLIC LIBRARY,OHATCHEE,36271,7803 AL HIGHWAY 77,1.0,-86.041867,33.765,CI1,113419.0,3708,1346,0,3396,518,231.0,5.0,10,42687,1456,7000,1123,52266
55487,AL,2008,MORGAN,SOMERVILLE,SOMERVILLE PUBLIC LIBRARY,SOMERVILLE,35670,192 BROAD ST,1.0,-86.799185,34.47335,CI1,115959.0,3875,1900,0,3035,500,92.0,207.0,0,19964,881,4500,7000,32345
55488,AL,2008,SHELBY,AL8013,CHELSEA PUBLIC LIBRARY,CHELSEA,35043,11611 CHELSEA ROAD,1.0,-86.630698,33.34148,CO1,187784.0,16762,4182,0,21189,975,848.0,564.0,0,66239,0,0,5960,72199
55489,AL,2008,JACKSON,AL8014,DUTTON PUBLIC LIBRARY,DUTTON,35744,23 MAIN STREET,1.0,-85.918114,34.60393,CI1,53134.0,1681,1200,0,1890,569,0.0,0.0,20,13717,0,0,399,14116
55490,AL,2008,LOWNDES,AL8015,FORT DEPOSIT PUBLIC LIBRARY,FORT DEPOSIT,36032,24 SOUTH POLLARD ST,1.0,-86.506416,31.9461,CI1,12644.0,5200,1721,0,5115,0,0.0,0.0,0,119767,3555,0,10110,133432
55491,AL,2008,BALDWIN,AL8016,SUMMERDALE - MARJORIE YOUNCE SNOOK PUBLIC LIBRARY,SUMMERDALE,36580,202 WEST BROADWAY STREET,1.0,-87.701516,30.48717,CI1,174439.0,10580,2458,0,2311,916,47.0,112.0,35,71409,824,0,315,72548
55492,AL,2008,MOBILE,AL8004,MT. VERNON PUBLIC LIBRARY,MT. VERNON,36560,1220 MILITARY ROAD,1.0,-88.013534,31.08554,CI1,406309.0,3000,1000,0,534,15,102.0,55.0,8,21303,997,100,3000,25400
55493,AL,2008,MORGAN,107-008,PRICEVILLE PUBLIC LIBRARY,PRICEVILLE,35603,103 FAYE DRIVE,1.0,-86.891988,34.52611,CI1,115959.0,4689,1976,0,5174,166,469.0,527.0,0,77850,4306,7000,0,89156
55494,AL,2008,ETOWAH,999-055,SARDIS CITY PUBLIC LIBRARY,SARDIS CITY,35956,1310 CHURCH STREET,1.0,-86.122733,34.1735,CI1,103303.0,6525,1300,0,3294,1260,227.0,1184.0,1,38797,2377,0,3042,44216
55495,AL,2008,BIBB,AL8009,GREEN POND - EUNICE KELLY WORTHINGTON PUBLIC LIBRARY,GREEN POND,35074,321 PRESBYTERIAN CHURCH ROAD,1.0,-87.123472,33.22606,CI1,21629.0,6290,1250,0,8240,407,955.0,745.0,30,1800,2395,0,17982,22177
55496,AR,2008,PULASKI,AROO1-009,CENTRAL ARKANSAS LIBRARY SYSTEM,LITTLE ROCK,72201,100 ROCK STREET,5.0,-92.266834,34.74707,OTH,376797.0,1815774,29680,0,580325,74460,19354.0,34495.0,1740,12781597,504140,0,389184,13674921
55497,AR,2008,WASHINGTON,AR002,WASHINGTON COUNTY LIBRARY SYSTEM,FAYETTEVILLE,72701,1080 WEST CLYDESDALE DRIVE,5.0,-94.174782,36.03416,MC2,195803.0,784445,17413,0,214866,22492,14702.0,34513.0,264,2594343,182850,0,325105,3102298
55498,AR,2008,MARION,AR003,MARION COUNTY LIBRARY,YELLVILLE,72687,319 HIGHWAY 14 SOUTH,5.0,-92.684764,36.22702,MC1,16774.0,13492,2676,0,8421,953,550.0,50.0,30,154148,0,0,0,154148
55499,AR,2008,HEMPSTEAD,AR0004-023,SOUTHWEST ARKANSAS REGIONAL LIBRARY,HOPE,71801,500 SOUTH ELM STREET,5.0,-93.592132,33.66,MC1,22900.0,284571,24200,0,84457,5476,6208.0,7123.0,203,672860,234472,0,8654,915986
55500,AR,2008,HOT SPRING,AR0005-011,MID ARKANSAS REGIONAL LIBRARY SYSTEM,MALVERN,72104,202 EAST THIRD STREET,5.0,-92.811958,34.36385,MC1,31909.0,123682,9100,1,36845,7121,2290.0,5356.0,92,784306,160770,0,44683,989759
55501,AR,2008,GARLAND,AR006-004,GARLAND COUNTY LIBRARY,HOT SPRINGS,71901,1427 MALVERN AVENUE,5.0,-93.039872,34.49769,CO1,97465.0,404520,3666,1,89556,13956,9370.0,14031.0,217,2203362,153546,0,74906,2431814
55502,AR,2008,INDEPENDENCE,AR007-003,WHITE RIVER REGIONAL LIBRARY,BATESVILLE,72501,368 E. MAIN STREET,5.0,-91.651539,35.77153,MC1,34641.0,229268,22488,0,122164,5111,6654.0,3725.0,445,1446295,271165,94050,68795,1880305
55503,AR,2008,JEFFERSON,AR008-002,PINE BLUFF JEFFERSON COUNTY LIBRARY SYSTEM,PINE BLUFF,71601,200 E. 8TH AVENUE,5.0,-92.001854,34.22157,CO1,78373.0,178724,10346,0,69279,9975,6182.0,7039.0,190,1124691,136312,0,102707,1363710
55504,AR,2008,CRAIGHEAD,AR009-002,CROWLEY RIDGE REGIONAL LIBRARY,JONESBORO,72401,315 WEST OAK AVENUE,5.0,-90.70774,35.83382,MC1,92640.0,359878,14474,0,106832,37581,9438.0,9107.0,246,2350452,165031,0,424098,2939581
55505,AR,2008,COLUMBIA,AR010-002,COLUMBIA COUNTY LIBRARY,MAGNOLIA,71753,"220 EAST MAIN STREET, BOX 668",5.0,-93.2391,33.26702,CO1,24146.0,67336,3250,0,23537,4571,1693.0,821.0,72,348343,86381,0,24332,459056
55506,AR,2008,SEBASTIAN,AR011-002,FORT SMITH PUBLIC LIBRARY,FORT SMITH,72903,3201 ROGERS AVENUE,5.0,-94.397564,35.37407,CI1,122274.0,446700,11804,0,190071,14875,11032.0,9088.0,479,2364467,137449,0,135572,2637488
55507,AR,2008,YELL,AR012-004,ARKANSAS RIVER VALLEY REGIONAL LIBRARY,DARDANELLE,72834,501 NORTH FRONT STREET,5.0,-93.157796,35.22793,MC1,21976.0,194702,14210,0,86700,13270,4308.0,6055.0,320,1447414,191431,1854,89809,1730508
55508,AR,2008,GREENE,AR013,NORTHEAST ARKANSAS REGIONAL LIBRARY,PARAGOULD,72450,120 NORTH 12TH STREET,5.0,-90.500569,36.05656,MC1,40684.0,216634,11568,0,55600,11113,4629.0,5571.0,262,1178861,160958,0,60991,1400810
55509,AR,2008,DREW,AR0014-016,SOUTHEAST ARKANSAS REGIONAL LIBRARY,MONTICELLO,71655,107 EAST JACKSON,5.0,-91.791062,33.62583,MC1,18670.0,249209,19219,0,22214,12365,2379.0,4666.0,240,721337,182184,0,0,903521
55510,AR,2008,PHILLIPS,AR015-003,PHILLIPS LEE MONROE REGIONAL LIBRARY SYSTEM,HELENA,72342,623 PECAN STREET,5.0,-90.588551,34.52835,MC1,21603.0,63480,15340,0,9124,14687,1800.0,300.0,40,266674,0,0,73717,340391
55511,AR,2008,PULASKI,AR016,WILLIAM F. LAMAN PUBLIC LIBRARY,NORTH LITTLE ROCK,72114,2801 ORANGE STREET,5.0,-92.269453,34.78006,MA1,376797.0,278203,6442,0,71239,8165,8740.0,5685.0,197,2356995,103016,0,77282,2537293
55512,AR,2008,FAULKNER,AR017-002,FAULKNER-VAN BUREN REGIONAL LIBRARY SYSTEM,CONWAY,72032,1900 TYLER STREET,5.0,-92.449854,35.10282,MC1,106823.0,431987,13242,0,161645,24904,8611.0,8439.0,421,1379607,206812,0,144184,1730603
55513,AR,2008,WHITE,AR019-007,WHITE COUNTY REGIONAL LIBRARY SYSTEM,SEARCY,72143,113 EAST PLEASURE AVENUE,5.0,-91.737335,35.2477,CO1,74845.0,176722,12145,0,87264,10073,5426.0,4148.0,187,911928,107984,0,55068,1074980
55514,AR,2008,UNION,AR020-002,BARTON LIBRARY,EL DORADO,71730,200 EAST 5TH STREET,5.0,-92.662051,33.22195,CO1,43213.0,97000,7796,0,10045,8702,2016.0,1613.0,107,464431,0,0,104308,568739
55515,AR,2008,POPE,AR021-002,POPE COUNTY LIBRARY SYSTEM,RUSSELLVILLE,72801,116 EAST 3RD STREET,5.0,-93.133382,35.276,CO1,59952.0,160838,8372,1,84674,12542,2515.0,4707.0,287,968148,99782,0,32839,1100769
55516,AR,2008,SEBASTIAN,AR023-002,SCOTT SEBASTIAN REGIONAL LIBRARY,GREENWOOD,72936,18 SOUTH ADAIR,5.0,-94.256992,35.21232,MC1,122274.0,100116,5226,0,69133,3395,1383.0,1887.0,84,303827,110459,0,29921,444207
55517,AR,2008,CROSS,AR024-002,EAST CENTRAL ARKANSAS REGIONAL LIBRARY,WYNNE,72396,410 EAST MERRIMAN,5.0,-90.789449,35.22394,MC1,18808.0,86659,4200,0,20714,1432,2197.0,1699.0,160,484038,79950,0,0,563988
55518,AR,2008,CRITTENDEN,AR025,WEST MEMPHIS PUBLIC LIBRARY,WEST MEMPHIS,72301,213 NORTH AVALON,5.0,-90.193591,35.14822,CI1,52554.0,94706,2408,0,9924,1586,1356.0,97.0,59,521474,42536,0,24381,588391
55519,AR,2008,ASHLEY,AR026-003,ASHLEY COUNTY LIBRARY,HAMBURG,71646,211 EAST LINCOLN STREET,5.0,-91.796591,33.22579,CO1,22233.0,65982,5164,0,24698,967,5364.0,3393.0,122,555759,28185,0,9213,593157
55520,AR,2008,JACKSON,AR027-002,W.A. BILLINGSLEY/JACKSON COUNTY LIBRARY,NEWPORT,72112,213 WALNUT STREET,5.0,-91.282603,35.60525,CO1,16936.0,11998,2025,0,3038,745,2464.0,248.0,57,183450,25648,0,15115,224213
55521,AR,2008,MILLER,AR028-002,TEXARKANA PUBLIC LIBRARY,TEXARKANA,75501,600 WEST 3RD STREET,48.0,-94.048117,33.42043,CI1,43226.0,161696,3225,0,28404,4811,5710.0,7532.0,136,667877,76513,0,65958,810348
55522,AR,2008,CONWAY,AR030-002,CONWAY COUNTY LIBRARY,MORRILTON,72110,101 WEST CHURCH STREET,5.0,-92.745415,35.15131,CO1,20755.0,41500,2184,0,5404,3623,643.0,1143.0,35,245657,47660,0,11848,305165
55523,AR,2008,LAWRENCE,AR031-002,LAWRENCE COUNTY LIBRARY,WALNUT RIDGE,72476,1315 WEST MAIN,5.0,-90.969075,36.0747,CO1,16861.0,81286,5242,0,19766,4077,1177.0,1859.0,92,298316,42447,0,18313,359076
55524,AR,2008,ST. FRANCIS,AR037-002,FORREST CITY PUBLIC LIBRARY,FORREST CITY,72335,421 SOUTH WASHINGTON STREET,5.0,-90.784108,35.00663,CI1,26336.0,16750,2342,0,4290,561,931.0,347.0,29,166788,19430,0,8700,194918
55525,AR,2008,BENTON,AR038-002,BENTONVILLE PUBLIC LIBRARY,BENTONVILLE,72712,125 WEST CENTRAL,5.0,-94.209252,36.3723,CI1,209791.0,264848,2897,0,122685,14568,1997.0,4107.0,198,1151936,0,0,68277,1220213
55526,AR,2008,BAXTER,AR0039-004,BAXTER COUNTY LIBRARY,MOUNTAIN HOME,72653,424 WEST SEVENTH,5.0,-92.390041,36.33546,CO1,42115.0,147539,3843,0,37113,5887,3979.0,4107.0,175,585028,76151,0,44750,705929
55527,AR,2008,MISSISSIPPI,AR018-001,MISSISSIPPI/CRITTENDEN REGIONAL LIBRARY,BLYTHEVILLE,72315,200 NORTH 5TH STREET,5.0,-89.90804,35.92855,MC1,46808.0,190719,17522,0,45727,6305,2400.0,300.0,625,1070814,145112,0,21559,1237485
55528,AR,2008,LONOKE,AR022-002,LONOKE/PRAIRIE COUNTY REGIONAL LIBRARY,LONOKE,72086,204 EAST 2ND STREET,5.0,-91.89893,34.78526,MC1,65233.0,68020,14895,0,59963,5601,4780.0,3600.0,42,864328,134800,0,81040,1080168
55529,AR,2008,ARKANSAS,AR033-002,ARKANSAS COUNTY LIBRARY,STUTTGART,72160,2002 S. BUERKLE STREET,5.0,-91.558385,34.48,CO1,19236.0,39675,5330,0,8250,430,3101.0,3256.0,227,287680,48657,0,89570,425907
55530,AR,2008,POINSETT,AR0043-002,TRUMANN PUBLIC LIBRARY,TRUMANN,72472,1300 WEST MAIN,5.0,-90.524005,35.67132,CI1,24721.0,10927,1560,0,1950,48,216.0,158.0,11,38551,0,0,0,38551
55531,AR,2008,BENTON,AR0044-002,BELLA VISTA PUBLIC LIBRARY,BELLA VISTA,72714,11 DICKENS PLACE,5.0,-94.241469,36.47501,OTH,209791.0,68981,2596,0,7350,1105,1185.0,1614.0,76,63000,0,0,232332,295332
55532,AR,2008,SALINE,AR0046-003,SALINE COUNTY LIBRARY,BENTON,72015,1800 SMITHERS DRIVE,5.0,-92.570288,34.58174,CO1,98209.0,285218,5668,0,164481,14424,11554.0,8247.0,232,2052738,150110,0,124939,2327787
55533,AR,2008,BENTON,AR0047-001,ROGERS PUBLIC LIBRARY,ROGERS,72758,711 S. DIXIELAND RD.,5.0,-94.143835,36.32574,CI1,209791.0,277527,3413,0,147284,21336,7789.0,8802.0,324,1507217,87818,0,127617,1722652
55534,AR,2008,CRAWFORD,AR0048-005,CRAWFORD COUNTY LIBRARY SYSTEM,VAN BUREN,72956,111 NORTH 12TH STREET,5.0,-94.347029,35.4379,CO1,59682.0,195986,12922,0,53625,18674,7524.0,6850.0,62,1029644,0,0,0,1029644
55535,AR,2008,CARROLL,AR0049,CARROLL AND MADISON LIBRARY SYSTEM,BERRYVILLE,72616,106 SPRING STREET,5.0,-93.569619,36.36676,MC1,27557.0,165500,11986,0,41028,9100,5744.0,8621.0,210,824016,98914,0,42347,965277
55536,AR,2008,BOONE,AR0050-001,BOONE COUNTY LIBRARY,HARRISON,72601,221 WEST STEPHENSON AVENUE,5.0,-93.108923,36.2298,CO1,36881.0,194281,2658,0,54920,5738,2181.0,3190.0,97,437240,69551,0,38375,545166
55537,AR,2008,NEWTON,AR0051-001,NEWTON COUNTY,JASPER,72641,HC 31 BOX 8,5.0,-93.190418,36.00706,CO1,8298.0,26105,2232,0,6692,866,1040.0,1343.0,18,68057,29792,0,8767,106616
55538,AR,2008,CLARK,AR0060,CLARK COUNTY LIBRARY,ARKADELPHIA,71923,609 CADDO STREET,5.0,-93.053673,34.12094,CO1,23888.0,20000,3484,0,9492,995,1092.0,400.0,242,242116,0,0,6728,248844
55539,AR,2008,LAFAYETTE,AR0061,LAFAYETTE COUNTY LIBRARY,LEWISVILLE,71845,219 E. THIRD STREET,5.0,-93.575838,33.35721,CO1,7705.0,20875,2949,0,4205,20,500.0,41.0,41,81624,13705,0,5701,101030
55540,AR,2008,MONTGOMERY,AR0056,MONTGOMERY COUNTY LIBRARY,MOUNT IDA,71957,145A WHITTINGDON STREET,5.0,-93.631878,34.55628,CO1,9047.0,14092,1456,0,1812,132,628.0,980.0,8,24271,0,0,3192,27463
55541,AR,2008,OUACHITA,AR0063,PUBLIC LIBRARY OF CAMDEN & OUACHITA COUNTY,CAMDEN,71701,120 HARRISON AVE. S. W.,5.0,-92.831084,33.5847,CO1,25770.0,27969,3247,0,11839,674,1126.0,20.0,58,125755,39464,0,8857,174076
55542,AR,2008,CALHOUN,AR0064,CALHOUN COUNTY LIBRARY,HAMPTON,71744,109 2ND STREET,5.0,-92.471747,33.538,CO1,5435.0,20359,1504,0,7406,1109,752.0,936.0,32,131616,0,0,10216,141832
55543,AR,2008,WASHINGTON,AR0066,FAYETTEVILLE PUBLIC LIBRARY,FAYETTEVILLE,72701,401 W. MOUNTAIN STREET,5.0,-94.164476,36.06197,CI1,195803.0,580361,3237,0,263544,41533,20000.0,24999.0,389,3051987,129793,0,643647,3825427
55544,AR,2008,BENTON,AR0065,PEA RIDGE COMMUNITY LIBRARY,PEA RIDGE,72751,161 EAST PICKENS,5.0,-94.114631,36.4538,CI1,209791.0,9363,1721,0,4004,545,390.0,502.0,12,47923,2358,0,3545,53826
55545,AR,2008,BENTON,AR0067,GRAVETTE PUBLIC LIBRARY,GRAVETTE,72736,407 CHARLOTTE STREET SE,5.0,-94.449685,36.41945,CI1,209791.0,22224,2374,0,3135,5127,1189.0,1491.0,5,92248,0,0,2842,95090
55546,AR,2008,SEARCY,AR003-010,JIM G. FERGUSON SEARCY COUNTY LIBRARY,MARSHALL,72650,202 EAST MAIN,5.0,-92.629287,35.9089,CI1,8048.0,20239,2416,0,5917,2242,1967.0,3522.0,45,210286,0,0,0,210286
55547,AZ,2008,APACHE,AP101,APACHE COUNTY LIBRARY DISTRICT OFFICE,ST. JOHNS,85936,245 WEST 1ST SOUTH,4.0,-109.368544,34.50544,CO2,70207.0,65855,8451,0,13932,2359,2298.0,2062.0,93,1274406,25000,10351,21426,1331183
55548,AZ,2008,COCHISE,AZ0009,COCHISE COUNTY LIBRARY DISTRICT,BISBEE,85603,100 CLAWSON STREET,4.0,-109.876843,31.411,CO1,129006.0,38334,8111,2,13584,1199,4215.0,4638.0,70,1190818,23000,0,19320,1233138
55549,AZ,2008,GREENLEE,GL150,CLIFTON PUBLIC LIBRARY,CLIFTON,85533,505 SCHOOL STREET,4.0,-109.2541,33.0122,CI2,8002.0,6074,1696,0,2096,79,1435.0,417.0,22,55862,14955,0,0,70817
55550,AZ,2008,GRAHAM,GR140,SAFFORD CITY - GRAHAM COUNTY LIBRARY,SAFFORD,85546,808 S. 7TH AVENUE,4.0,-109.715033,32.83132,CO2,36452.0,112077,2274,0,39639,13464,2390.0,972.0,72,709522,23000,66618,0,799140
55551,AZ,2008,LA PAZ,LA160,PARKER PUBLIC LIBRARY,PARKER,85344,1001 S. NAVAJO AVE,4.0,-114.295295,34.147,CI2,20086.0,98066,2810,0,6470,2460,828.0,1258.0,16,218507,0,0,7417,225924
55552,AZ,2008,MARICOPA,AZ0028,MARICOPA COUNTY LIBRARY DISTRICT OFFICE,PHOENIX,85004,2700 N CENTRAL AVE STE 700,4.0,-112.073902,33.47792,CO2,3954598.0,3054746,41288,1,1409580,94275,53828.0,87325.0,1372,19356716,43406,0,4899534,24299656
55553,AZ,2008,MARICOPA,AZ0029-002,SAM GARCIA WESTERN AVENUE LIBRARY,AVONDALE,85323,495 E. WESTERN AVE,4.0,-112.344851,33.43532,CI1,3954598.0,67241,2600,0,35549,2010,916.0,834.0,56,540270,0,0,4000,544270
55554,AZ,2008,MARICOPA,AZ0030-002,BUCKEYE PUBLIC LIBRARY,BUCKEYE,85326,310 NORTH 6TH STREET,4.0,-112.583512,33.3724,CI1,3954598.0,155630,3061,1,42323,7052,957.0,584.0,55,667734,0,0,10300,678034
55555,AZ,2008,MARICOPA,MA174,CHANDLER PUBLIC LIBRARY,CHANDLER,85225,22 SOUTH DELAWARE,4.0,-111.837488,33.30307,CI2,3954598.0,1408422,12660,0,1122880,67662,27035.0,22722.0,576,6820785,57676,94235,433830,7406526
55556,AZ,2008,MARICOPA,AZ0033,GLENDALE PUBLIC LIBRARY,GLENDALE,85302,5959 W BROWN ST,4.0,-112.188001,33.57827,CI1,3954598.0,1253644,10004,0,1233553,95256,28234.0,20171.0,1078,8544168,12113,54200,402372,9012853
55557,AZ,2008,MARICOPA,AZ0034,CITY OF MESA MAIN LIBRARY,MESA,85201,64 E. FIRST ST.,4.0,-111.829872,33.41727,CI1,3954598.0,1165451,8008,0,805132,7186,7824.0,15041.0,991,9210072,22449,50000,69615,9352136
55558,AZ,2008,MARICOPA,MA180,PHOENIX PUBLIC LIBRARY,PHOENIX,85004,1221 N. CENTRAL AVENUE,4.0,-112.073691,33.46253,CI1,3954598.0,5167958,53507,0,3329850,141926,132042.0,123316.0,3605,36200860,74869,49000,1578445,37903174
55559,AZ,2008,MARICOPA,AZ0036,SCOTTSDALE PUBLIC LIBRARY,SCOTTSDALE,85251,3839 N. DRINKWATER BLVD.,4.0,-111.921671,33.49168,CI1,3954598.0,1432652,13300,0,641244,33199,80652.0,56030.0,829,10952254,11566,63681,295276,11322777
55560,AZ,2008,MARICOPA,AZ0038-002,TEMPE PUBLIC LIBRARY,TEMPE,85282,3500 SOUTH RURAL ROAD,4.0,-111.926402,33.3902,CI2,3954598.0,1030260,3578,0,396632,22693,8405.0,21253.0,503,5032586,0,91034,16500,5140120
55561,AZ,2008,MARICOPA,AZ0039-002,TOLLESON PUBLIC LIBRARY,TOLLESON,85353,9555 W. VAN BUREN,4.0,-112.265031,33.45026,CI2,3954598.0,30815,2476,0,18231,2600,144.0,1702.0,39,333861,0,0,0,333861
55562,AZ,2008,MARICOPA,AZ0040-002,WICKENBURG PUBLIC LIBRARY,WICKENBURG,85390,164 E. APACHE ST.,4.0,-112.729786,33.97024,CI1,3954598.0,129600,2300,0,19330,1057,1291.0,3327.0,37,338266,0,0,0,338266
55563,AZ,2008,MOHAVE,AZ0042,MOHAVE COUNTY LIBRARY DISTRICT,KINGMAN,86401,3269 N. BURBANK STREET,4.0,-114.029171,35.2228,CO1,196281.0,680890,18866,1,112295,22557,16016.0,15824.0,631,8073740,25000,29806,4500,8133046
55564,AZ,2008,NAVAJO,AZ0048,WHITERIVER PUBLIC LIBRARY,WHITERIVER,85941,100 E. WALNUT ST.,4.0,-109.976208,33.8252,OTH,112757.0,33140,5499,0,2795,280,523.0,1921.0,86,171079,6000,56000,4082,237161
55565,AZ,2008,PINAL,PI250,PINAL COUNTY LIBRARY DISTRICT,FLORENCE,85232,92 W. BUTTE AVE.,4.0,-111.388533,33.03137,CO1,327301.0,36752,7204,0,7350,552,1370.0,2820.0,21,1699680,27625,12627,34947,1774879
55566,AZ,2008,PIMA,PM240,PIMA COUNTY PUBLIC LIBRARY,TUCSON,85701,101 N. STONE AVENUE,4.0,-110.971512,32.2235,CO2,1012018.0,3724363,68796,1,227747,139821,92770.0,84367.0,3175,36578267,52613,73798,2394646,39099324
55567,AZ,2008,SANTA CRUZ,AZ0065,NOGALES/SANTA CRUZ COUNTY PUBLIC LIBRARY,NOGALES,85621,518 N. GRAND AVE.,4.0,-110.934466,31.34173,CO2,42923.0,100415,6858,0,12251,4676,1590.0,2163.0,92,565508,23000,23474,1584,613566
55568,AZ,2008,SANTA CRUZ,AZ0066-002,PATAGONIA PUBLIC LIBRARY,PATAGONIA,85624,346 DUQUESNE AVE,4.0,-110.756071,31.53752,CI2,42923.0,18572,1948,0,4506,378,1224.0,745.0,51,64389,259,0,27803,92451
55569,AZ,2008,YAVAPAI,YA280,YAVAPAI COUNTY LIBRARY DISTRICT,PRESCOTT,86301,172 EAST MERRITT STREET SUITE E,4.0,-112.467631,34.55496,CO1,215503.0,102232,15121,0,21186,2343,3445.0,14070.0,63,2856417,23000,0,144037,3023454
55570,AZ,2008,YUMA,YU300,YUMA COUNTY LIBRARY DISTRICT,YUMA,85364,350 THIRD AVE,4.0,-114.623358,32.72067,CO1,194322.0,697001,14623,0,205247,22659,6353.0,10519.0,536,6233165,23000,34012,807658,7097835
55571,AZ,2008,GREENLEE,AZ0084,DUNCAN PUBLIC LIBRARY,DUNCAN,85534,122 N. HWY. 75,4.0,-109.103492,32.72229,CI2,8002.0,8730,1740,0,3561,613,214.0,377.0,7,16897,6095,0,10558,33550
55572,AZ,2008,MARICOPA,AZ0086-002,DESERT FOOTHILLS LIBRARY,CAVE CREEK,85331,38443 N. SCHOOLHOUSE ROAD,4.0,-111.943232,33.83497,CI2,3954598.0,50000,3000,0,19000,2517,3762.0,4387.0,60,77000,0,13000,288459,378459
55573,AZ,2008,MARICOPA,AZ0088,PEORIA PUBLIC LIBRARY SYSTEM,PEORIA,85345,8463 W. MONROE ST.,4.0,-112.240999,33.57726,CI2,3954598.0,549274,5914,0,567329,28726,7699.0,12669.0,212,4129059,7402,7006,93783,4237250
55574,AZ,2008,MARICOPA,YPL,YOUNGTOWN PUBLIC LIBRARY,YOUNGTOWN,85363,12035 CLUBHOUSE SQUARE,4.0,-112.302041,33.60386,CI2,3954598.0,14765,2000,0,3279,115,475.0,2115.0,36,134028,0,0,0,134028
55575,AZ,2008,APACHE,AZ0100-004,OFFICE OF NAVAJO NATION LIBRARY,WINDOW ROCK,86515,HIGHWAY 264 POST OFFICE LOOP,4.0,-109.054436,35.67781,OTH,70207.0,60272,5408,0,3613,239,99.0,1616.0,119,363873,6000,0,0,369873
55576,AZ,2008,GILA,AZ0102,GILA COUNTY LIBRARY DISTRICT,GLOBE,85501,1400 EAST ASH,4.0,-110.774408,33.39539,CO2,52166.0,1300,2340,0,6,0,228.0,22.0,11,343005,23000,0,0,366005
55577,AZ,2008,LA PAZ,AZ0103-002,COLORADO RIVER INDIAN TRIBES LIBRARY/ARCHIVES,PARKER,85344,26600 MOHAVE ROAD,4.0,-114.46851,33.84826,OTH,20086.0,7000,2113,0,2830,540,249.0,556.0,27,146480,6000,0,0,152480
55578,AZ,2008,LA PAZ,AZ0104,QUARTZSITE PUBLIC LIBRARY,QUARTZSITE,85346,465 NORTH PLYMOUTH AVE,4.0,-114.216917,33.66644,CI2,20086.0,88893,2701,0,2384,368,1129.0,4382.0,59,199929,0,0,4900,204829
55579,AZ,2008,GRAHAM,AZ0106,PIMA PUBLIC LIBRARY,PIMA,85543,50 SOUTH 200 WEST,4.0,-109.831567,32.89534,CI2,36452.0,21083,1515,0,8828,10512,448.0,480.0,21,55050,0,0,1257,56307
55580,AZ,2008,NAVAJO,AZ0107,NAVAJO COUNTY LIBRARY DISTRICT,HOLBROOK,86025,121 W. BUFFALO,4.0,-110.158459,34.9038,CO2,112757.0,7256,4478,0,7727,1683,5515.0,5653.0,16,632452,23000,8000,8952,672404
55581,AZ,2008,PIMA,AZ0109,ORO VALLEY PUBLIC LIBRARY,ORO VALLEY,85737,1305 W NARANJA DRIVE,4.0,-110.994025,32.40977,MA1,1012018.0,196905,2520,0,163452,8379,7262.0,5609.0,201,1272664,0,0,30000,1302664
55582,AZ,2008,COCHISE,AZ0110,BENSON PUBLIC LIBRARY,BENSON,85602,300 S. HUACHUCA,4.0,-110.296615,31.96586,CI2,129006.0,59757,2208,0,13928,745,2819.0,2781.0,64,241677,0,0,0,241677
55583,AZ,2008,COCHISE,AZ0111,COPPER QUEEN LIBRARY,BISBEE,85603,6 MAIN STREET,4.0,-109.915161,31.44161,CI2,129006.0,41335,2236,0,7430,1197,1296.0,2629.0,112,213552,0,0,0,213552
55584,AZ,2008,COCHISE,AZ0112,DOUGLAS PUBLIC LIBRARY,DOUGLAS,85607,560 10TH STREET,4.0,-109.553573,31.34449,CI2,129006.0,95932,2589,0,27407,2986,2872.0,5097.0,59,393471,0,31250,5738,430459
55585,AZ,2008,COCHISE,AZ0113,HUACHUCA CITY PUBLIC LIBRARY,HUACHUCA CITY,85616,506 N GONZALES BLVD,4.0,-110.335361,31.63156,CI2,129006.0,22363,2276,0,4768,728,1816.0,1521.0,1,59662,0,5163,0,64825
55586,AZ,2008,COCHISE,AZ0114,SIERRA VISTA PUBLIC LIBRARY,SIERRA VISTA,85635,2600 EAST TACOMA STREET,4.0,-110.282606,31.56377,CI2,129006.0,211909,2948,0,65700,5321,4876.0,1570.0,214,1260447,0,0,0,1260447
55587,AZ,2008,COCHISE,AZ0115,TOMBSTONE PUBLIC LIBRARY,TOMBSTONE,85638,CORNER OF 4TH AND TOUGHNUT,4.0,-110.044067,31.63612,CI2,129006.0,16534,1988,0,1766,32,316.0,698.0,16,66842,0,0,0,66842
55588,AZ,2008,COCHISE,AZ0116,ELSIE S. HOGAN COMMUNITY LIBRARY,WILLCOX,85643,207 W. MALEY,4.0,-109.833846,32.25322,CI2,129006.0,37951,2304,0,7073,2771,411.0,832.0,35,269874,0,19112,0,288986
55589,AZ,2008,PINAL,AZ0117,APACHE JUNCTION PUBLIC LIBRARY,APACHE JUNCTION,85219,1177 N. IDAHO RD.,4.0,-111.546074,33.42644,MA1,327301.0,310716,2640,0,117520,12691,5834.0,15150.0,143,1980855,0,39300,5213,2025368
55590,AZ,2008,PINAL,AZ0118-002,CASA GRANDE PUBLIC LIBRARY,CASA GRANDE,85222,449 N. DRY LAKE,4.0,-111.750105,32.87685,MA1,327301.0,272000,3070,1,98003,3148,4803.0,3300.0,137,896100,1700,48500,0,946300
55591,AZ,2008,PIMA,AZ0119,VENITO GARCIA LIBRARY,SELLS,85634,MAIN STREET,4.0,-112.071346,32.0825,CI2,1012018.0,10000,7180,0,303,1819,67.0,468.0,94,59000,6000,6000,0,71000
55592,AZ,2008,YUMA,AZ0122-001,COCOPAH TRIBAL LIBRARY,SOMERTON,85350,14250 S. AVENUE I,4.0,-114.701223,32.58199,OTH,194322.0,506,2080,0,31,443,73.0,76.0,14,12960,6000,0,0,18960
55593,AZ,2008,MARICOPA,AZ0123-001,SALT RIVER TRIBAL LIBRARY,SCOTTSDALE,85256,1880 N. LONGMORE,4.0,-111.865523,33.4687,OTH,3954598.0,30427,2024,0,8799,2003,915.0,1107.0,36,128025,4681,0,7078,139784
55594,AZ,2008,GILA,AZ0124,GLOBE PUBLIC LIBRARY,GLOBE,85501,339 S. BROAD ST.,4.0,-110.785546,33.39363,CI2,52166.0,37659,2315,0,9096,1209,811.0,1401.0,63,223700,0,0,9678,233378
55595,AZ,2008,GILA,AZ0125,HAYDEN PUBLIC LIBRARY,HAYDEN,85235,219 E. 5TH ST.,4.0,-110.784067,33.00588,CI2,52166.0,9477,2158,0,3450,1060,191.0,1292.0,20,96608,0,0,0,96608
55596,AZ,2008,GILA,AZ0126,MIAMI MEMORIAL PUBLIC LIBRARY,MIAMI,85539,1052 ADONIS AVE.,4.0,-110.86934,33.39686,CI2,52166.0,17680,2028,0,1601,400,373.0,956.0,12,80000,2000,0,0,82000
55597,AZ,2008,GILA,AZ0127,PAYSON PUBLIC LIBRARY,PAYSON,85541,328 N. MCLANE RD.,4.0,-111.331754,34.24382,CI2,52166.0,560000,3256,0,25330,6700,3800.0,6200.0,224,484466,2000,0,16000,502466
55598,AZ,2008,GILA,AZ0128,ISABELLE HUNT MEMORIAL PUBLIC LIBRARY,PINE,85544,6124 W. RANDALL PLACE,4.0,-111.463819,34.38797,OTH,52166.0,27000,1924,0,3939,1414,1315.0,2184.0,27,96100,2000,0,39017,137117
55599,AZ,2008,GILA,AZ0129,SAN CARLOS PUBLIC LIBRARY,SAN CARLOS,85550,89 SAN CARLOS AVE.,4.0,-109.858421,33.3271,CI2,52166.0,36365,2080,0,860,264,140.0,396.0,32,60400,2000,0,0,62400
55600,AZ,2008,GILA,AZ0130,TONTO BASIN PUBLIC LIBRARY,TONTO BASIN,85553,415 OLD HWY 188,4.0,-111.314663,33.877,OTH,52166.0,26000,2080,0,9658,2340,58.0,2622.0,9,55900,0,0,0,55900
55601,AZ,2008,GILA,AZ0131,YOUNG PUBLIC LIBRARY,YOUNG,85554,150 COMMUNITY CENTER ROAD,4.0,-110.93129,34.11091,OTH,52166.0,6860,1248,0,255,81,735.0,1124.0,7,52900,0,0,470,53370
55602,AZ,2008,PINAL,AZ0133-002,COOLIDGE PUBLIC LIBRARY,COOLIDGE,85228,160 W. CENTRAL AVENUE,4.0,-111.516871,32.9776,CI1,327301.0,62027,2860,0,16324,2964,704.0,540.0,34,450286,0,0,0,450286
55603,AZ,2008,PINAL,AZ0134-002,ELOY PUBLIC LIBRARY,ELOY,85231,100 EAST 7TH STREET,4.0,-111.554753,32.75646,CI1,327301.0,23550,2860,0,3509,2100,504.0,639.0,69,257334,0,0,0,257334
55604,AZ,2008,PINAL,AZ0135-002,FLORENCE COMMUNITY LIBRARY,FLORENCE,85232,1000 S. WILLOW STREET,4.0,-111.389338,33.02454,OTH,327301.0,119564,3380,0,20918,2209,953.0,1354.0,43,339945,0,0,7573,347518
55605,AZ,2008,PINAL,AZ0136-002,KEARNY PUBLIC LIBRARY,KEARNY,85237,912-A TILBURY RD.,4.0,-110.914654,33.0544,MA1,327301.0,10044,1872,0,4725,864,423.0,693.0,20,86810,0,0,0,86810
55606,AZ,2008,PINAL,AZ0137-002,MAMMOTH PUBLIC LIBRARY,MAMMOTH,85618,125 N. CLARK ST.,4.0,-110.640748,32.72124,CI1,327301.0,5200,1040,0,787,60,81.0,830.0,20,47401,0,0,0,47401
55607,AZ,2008,PINAL,AZ0138-002,MARICOPA PUBLIC LIBRARY,MARICOPA,85239,44240 WEST MARICOPA/CASA GRANDE HWY,4.0,-112.043824,33.05697,MA1,327301.0,37590,2211,0,10052,580,813.0,1355.0,26,501141,1770,0,0,502911
55608,AZ,2008,PINAL,AZ0141-002,SUPERIOR PUBLIC LIBRARY,SUPERIOR,85273,99 KELLNER AVE.,4.0,-111.097496,33.29453,MA1,327301.0,26500,1970,0,4539,1500,161.0,681.0,48,116821,0,0,0,116821
55609,AZ,2008,YAVAPAI,AZ0145,CAMP VERDE COMMUNITY LIBRARY,CAMP VERDE,86322,130 BLACK BRIDGE LOOP RD.,4.0,-111.854544,34.57096,CI2,215503.0,49444,3146,0,14562,2047,485.0,588.0,103,366289,0,0,0,366289
55610,AZ,2008,YAVAPAI,AZ0146,CHINO VALLEY PUBLIC LIBRARY,CHINO VALLEY,86323,1020 W. PALOMINO ROAD,4.0,-112.465437,34.77344,CI2,215503.0,75971,2832,0,41458,8449,1369.0,4913.0,70,498106,0,0,0,498106
55611,AZ,2008,YAVAPAI,AZ0147,CLARK MEMORIAL,CLARKDALE,86324,39 NORTH NINTH STREET,4.0,-112.057562,34.77186,CI2,215503.0,8320,1273,0,591,0,297.0,446.0,11,57159,0,0,0,57159
55612,AZ,2008,YAVAPAI,AZ0150,COTTONWOOD PUBLIC LIBRARY,COTTONWOOD,86326,100 S. 6TH ST.,4.0,-112.022764,34.73656,CI2,215503.0,121264,2796,0,85280,1364,4953.0,8789.0,92,764410,0,0,0,764410
55613,AZ,2008,YAVAPAI,AZ0152,JEROME PUBLIC,JEROME,86331,600 CLARK ST.,4.0,-112.114836,34.75034,CI2,215503.0,10660,2904,0,1235,189,357.0,3694.0,10,49018,0,0,1250,50268
55614,AZ,2008,YAVAPAI,AZ0154,PRESCOTT VALLEY PUBLIC LIBRARY,PRESCOTT VALLEY,86314,7501 CIVIC CIRCLE,4.0,-112.33636,34.59479,CI2,215503.0,157139,3016,0,108956,6313,3356.0,7413.0,83,1422113,0,57300,9603,1489016
55615,AZ,2008,YAVAPAI,AZ0155,SEDONA PUBLIC LIBRARY,SEDONA,86336,3250 WHITE BEAR ROAD,4.0,-111.81698,34.86237,MC2,215503.0,206069,3828,0,26826,2119,4162.0,3249.0,212,870743,2324,0,473599,1346666
55616,AZ,2008,YAVAPAI,AZ0158,PRESCOTT PUBLIC LIBRARY,PRESCOTT,86303,215 E GOODWIN ST,4.0,-112.467036,34.53993,CI2,215503.0,477785,6055,0,139637,12051,13427.0,13907.0,278,2477375,0,0,4910,2482285
55617,AZ,2008,NAVAJO,AZ0160-002,HOLBROOK PUBLIC LIBRARY,HOLBROOK,86025,403 PARK ST,4.0,-110.154925,34.90696,CI2,112757.0,39730,2124,0,10455,2650,1199.0,1810.0,94,206967,0,0,0,206967
55618,AZ,2008,NAVAJO,AZ0161-002,LARSON MEMORIAL PUBLIC LIBRARY,LAKESIDE,85929,1595 JOHNSON DR.,4.0,-109.972392,34.1504,CI2,112757.0,43857,2241,0,20028,12402,1752.0,957.0,54,252350,1300,5000,0,258650
55619,AZ,2008,NAVAJO,AZ0162-002,SHOW LOW PUBLIC LIBRARY,SHOW LOW,85901,180 N 9TH STREET,4.0,-110.032019,34.25135,CI2,112757.0,177388,2981,0,41394,6578,1439.0,2311.0,99,572099,0,0,4196,576295
55620,AZ,2008,NAVAJO,AZ0163-002,SNOWFLAKE-TAYLOR PUBLIC LIBRARY,SNOWFLAKE,85937,418 SOUTH 4TH WEST,4.0,-110.083928,34.50833,CI2,112757.0,63200,2052,0,30219,1900,841.0,1994.0,53,171800,0,0,2000,173800
55621,AZ,2008,NAVAJO,AZ0164,WINSLOW PUBLIC LIBRARY,WINSLOW,86047,420 W. GILMORE STREET,4.0,-110.698265,35.0335,CI2,112757.0,43035,1924,0,11509,2576,511.0,1304.0,56,249590,0,0,0,249590
55622,AZ,2008,COCONINO,AZ0165,FREDONIA PUBLIC LIBRARY,FREDONIA,86022,130 N. MAIN,4.0,-112.526351,36.95141,CI2,128558.0,11167,2194,0,4026,1064,956.0,1437.0,13,47527,1456,0,0,48983
55623,AZ,2008,COCONINO,AZ0167,PAGE PUBLIC LIBRARY,PAGE,86040,479 S. LAKE POWELL BLVD.,4.0,-111.459442,36.91025,CI2,128558.0,139238,2727,0,16012,7158,3147.0,3976.0,52,466927,0,16500,37894,521321
55624,AZ,2008,COCONINO,AZ0168,WILLIAMS PUBLIC LIBRARY,WILLIAMS,86046,113 S. 1ST ST.,4.0,-112.186748,35.24981,CI2,128558.0,13396,1267,0,4375,326,215.0,280.0,20,81930,0,0,0,81930
55625,AZ,2008,COCONINO,AZ0169,FLAGSTAFF CITY-COCONINO COUNTY PUBLIC LIBRARY,FLAGSTAFF,86001,300 WEST ASPEN,4.0,-111.652289,35.19959,CO2,128558.0,761433,13014,2,218942,19407,13016.0,24806.0,996,3140304,10146,53884,40233,3244567
55626,AZ,2008,GRAHAM,AZ0170,BONITA LIBRARY,WILLCOX,85643,18008 S FT. GRANT RD.,4.0,-109.97358,32.56169,SD2,36452.0,13562,1336,0,3023,3114,145.0,284.0,21,0,0,0,0,0
55627,AZ,2008,GREENLEE,AZMOR,MORENCI COMMUNITY LIBRARY,MORENCI,85540,346 PLAZA MORENCI,4.0,-109.320352,33.049,CI2,8002.0,7307,2200,0,4146,83,203.0,782.0,19,0,0,0,72017,72017
55628,AZ,2008,MOHAVE,EMML,THE EDWARD MCELWAIN MEMORIAL LIBRARY,PEACH SPRINGS,86434,460 HUALAPAI WAY,4.0,-113.420303,35.5336,OTH,196281.0,3858,1654,0,1261,295,154.0,266.0,6,16855,4107,0,2034,22996
55629,AZ,2008,MOHAVE,KPTL,KAIBAB PAIUTE TRIBAL LIBRARY,FREDONIA,86022,1 NORTH PIPE SPRINGS ROAD,4.0,-112.526377,36.94998,OTH,196281.0,1260,1654,0,412,97,50.0,87.0,2,3551,2649,0,1312,7512
55630,AZ,2008,MARICOPA,AZFTM,FT. MCDOWELL YAVAPAI NATION TRIBAL LIBRARY,FT. MCDOWELL,85264,16708 N. FT MCDOWELL ROAD,4.0,-111.664797,33.6081,OTH,3954598.0,2250,2080,0,2788,500,121.0,216.0,60,25000,6000,6000,0,37000
55631,AZ,2008,PINAL,AZIHML,IRA HAYES MEMORIAL LIBRARY,SACATON,85247,94 NORTH CHURCH STREET,4.0,-111.875344,33.2181,OTH,327301.0,5200,2080,0,1190,118,1328.0,200.0,14,189999,6000,6000,925,202924
55632,AZ,2008,LA PAZ,AZLAP,LA PAZ COUNTY SERVICES,PARKER,85344,1001 S. NAVAJO AVE,4.0,-114.295295,34.147,CO2,20086.0,33311,3066,1,8141,578,1072.0,1463.0,7,155478,23000,0,500,178978
55633,CA,2008,ALAMEDA,M597,ALAMEDA COUNTY LIBRARY,FREMONT,94538,2450 STEVENSON BLVD.,6.0,-121.971933,37.5513,CO2,1474368.0,4266895,18252,1,2698932,66373,57275.0,94035.0,2048,21929207,336584,90597,1144991,23501379
55634,CA,2008,ALAMEDA,M598,ALAMEDA FREE LIBRARY,ALAMEDA,94501,1550 OAK ST,6.0,-122.242695,37.76684,CI1,1474368.0,555813,7243,0,248480,19327,5928.0,7082.0,233,2770805,83629,0,250080,3104514
55635,CA,2008,LOS ANGELES,M599,ALHAMBRA PUBLIC LIBRARY,ALHAMBRA,91801,101 S. FIRST ST.,6.0,-118.126517,34.09264,CI1,9862049.0,360799,2535,0,233519,6537,4227.0,4772.0,177,2307368,65850,0,75970,2449188
55636,CA,2008,ALPINE,M600,ALPINE COUNTY LIBRARY/ARCHIVES,MARKLEEVILLE,96120,270 LARAMIE ST.,6.0,-119.777916,38.69321,CO1,1061.0,19107,2964,1,6783,1446,394.0,2240.0,60,255866,1200,0,9000,266066
55637,CA,2008,LOS ANGELES,M601,ALTADENA LIBRARY DISTRICT,ALTADENA,91001,600 E. MARIPOSA ST.,6.0,-118.137304,34.18962,MA2,9862049.0,212399,5998,0,60172,5725,4526.0,2980.0,277,2345472,54569,0,81354,2481395
55638,CA,2008,AMADOR,M602,AMADOR COUNTY LIBRARY,JACKSON,95642,530 SUTTER ST.,6.0,-120.781313,38.3528,CO1,38238.0,84476,7056,0,16291,3111,3624.0,4760.0,71,910677,41760,0,18450,970887
55639,CA,2008,ORANGE,M603,ANAHEIM PUBLIC LIBRARY,ANAHEIM,92805,500 W. BROADWAY,6.0,-117.918929,33.83192,CI1,3010759.0,1522883,19788,2,1003162,137682,15087.0,37027.0,907,10525542,123178,457564,653237,11759521
55640,CA,2008,LOS ANGELES,M604,ARCADIA PUBLIC LIBRARY,ARCADIA,91006,20 W. DUARTE ROAD,6.0,-118.031974,34.12935,CI1,9862049.0,602450,3038,0,440962,10554,5037.0,5811.0,253,2898467,66478,7075,98741,3070761
55641,CA,2008,PLACER,M605,PLACER COUNTY LIBRARY,AUBURN,95603,350 NEVADA ST.,6.0,-121.082418,38.90643,CO2,341945.0,630345,17735,1,495897,19700,27521.0,25926.0,740,4102909,102087,0,520717,4725713
55642,CA,2008,LOS ANGELES,M606,AZUSA CITY LIBRARY,AZUSA,91702,729 N. DALTON AVE.,6.0,-117.904993,34.13428,CI1,9862049.0,145237,2461,0,32887,6112,2859.0,2976.0,140,1278095,18684,0,40493,1337272
55643,CA,2008,ALAMEDA,M607,BERKELEY PUBLIC LIBRARY,BERKELEY,94704,2090 KITTREDGE ST.,6.0,-122.268259,37.86843,CI1,1474368.0,1524973,13607,0,549340,28636,48357.0,33437.0,1418,13050019,218489,0,654373,13922881
55644,CA,2008,LOS ANGELES,M608,BEVERLY HILLS PUBLIC LIBRARY,BEVERLY HILLS,90210,444 N. REXFORD DR.,6.0,-118.399722,34.07287,CI1,9862049.0,558853,3262,0,181181,7466,21165.0,9020.0,597,8482756,224157,7500,560283,9274696
55645,CA,2008,IMPERIAL,M609,BRAWLEY PUBLIC LIBRARY,BRAWLEY,92227,400 MAIN ST.,6.0,-115.533487,32.9785,CI1,163972.0,54250,2000,1,41298,953,1448.0,695.0,104,560407,29870,0,0,590277
55646,CA,2008,ORANGE,M610,BUENA PARK LIBRARY DISTRICT,BUENA PARK,90620,7150 LA PALMA AVE.,6.0,-118.008798,33.84655,CI1,3010759.0,289244,2701,0,226481,16313,6493.0,5236.0,323,1611753,71574,0,547385,2230712
55647,CA,2008,LOS ANGELES,M611,BURBANK PUBLIC LIBRARY,BURBANK,91502,110 N. GLENOAKS BLVD.,6.0,-118.30641,34.18334,CI1,9862049.0,1076046,8086,0,403977,32378,24472.0,32001.0,294,5903942,255760,4000,441013,6604715
55648,CA,2008,SAN MATEO,M612,BURLINGAME PUBLIC LIBRARY,BURLINGAME,94010,480 PRIMROSE RD.,6.0,-122.34968,37.57926,CI2,712690.0,447162,4888,0,239101,19535,11706.0,9239.0,336,3688530,157172,0,92691,3938393
55649,CA,2008,BUTTE,M613,BUTTE COUNTY LIBRARY,OROVILLE,95966,1820 MITCHELL AVENUE,6.0,-121.552892,39.50602,CO1,220337.0,723460,11664,1,231738,27724,9245.0,7798.0,526,2718314,142003,39091,195580,3094988
55650,CA,2008,CALAVERAS,M614,CALAVERAS COUNTY LIBRARY,SAN ANDREAS,95249,1299 GOLD HUNTER ROAD,6.0,-120.659581,38.19481,CO1,46843.0,74000,10488,0,28499,2415,5323.0,7498.0,86,568068,39251,0,35937,643256
55651,CA,2008,IMPERIAL,M615,CAMARENA MEMORIAL PUBLIC LIBRARY,CALEXICO,92231,850 ENCINAS AVE.,6.0,-115.48833,32.67548,CI1,163972.0,101496,3241,0,72972,6996,602.0,1502.0,104,776353,77963,20000,3161,877477
55652,CA,2008,SAN DIEGO,M616,CARLSBAD CITY LIBRARY,CARLSBAD,92011,1775 DOVE LANE,6.0,-117.269812,33.10641,CI1,3001072.0,662524,8840,0,543945,44689,28021.0,16790.0,590,9636275,262854,19188,188356,10106673
55653,CA,2008,MONTEREY,M617,HARRISON MEMORIAL LIBRARY,CARMEL,93921,OCEAN & LINCOLN AVE.,6.0,-121.923536,36.5551,CI1,408238.0,87236,4732,0,31950,1459,2354.0,2447.0,131,879465,23032,0,191206,1093703
55654,CA,2008,LOS ANGELES,M618,CERRITOS PUBLIC LIBRARY,CERRITOS,90703,18025 BLOOMFIELD AVE.,6.0,-118.063829,33.86552,CI1,9862049.0,1042445,3336,0,395424,18603,6976.0,12816.0,387,5634650,45799,0,0,5680449
55655,CA,2008,SAN DIEGO,M619,CHULA VISTA PUBLIC LIBRARY,CHULA VISTA,91910,365 F ST.,6.0,-117.082907,32.64053,CI1,3001072.0,1296245,6507,0,326231,24931,17322.0,18845.0,401,6658062,114161,0,333245,7105468
55656,CA,2008,FRESNO,M620,COALINGA-HURON UNIFIED SCHOOL DISTRICT LIBR,COALINGA,93210,305 N. FOURTH ST.,6.0,-120.360453,36.14156,SD2,909153.0,65449,4845,0,9840,4911,1201.0,2312.0,118,838380,10946,0,227907,1077233
55657,CA,2008,SAN BERNARDINO,M621,COLTON PUBLIC LIBRARY,COLTON,92324,656 N. NINTH ST.,6.0,-117.321741,34.07159,CI1,2015355.0,116732,5720,0,60566,2165,4866.0,3314.0,165,1407267,57292,0,17363,1481922
55658,CA,2008,COLUSA,M622,COLUSA COUNTY FREE LIBRARY,COLUSA,95932,738 MARKET ST.,6.0,-122.011234,39.21482,CO1,21204.0,32191,5562,0,7988,2970,4901.0,5352.0,68,509838,66899,0,65143,641880
55659,CA,2008,LOS ANGELES,M623,CITY OF COMMERCE PUBLIC LIBRARY,COMMERCE,90040,5655 JILLSON ST.,6.0,-118.156705,34.00025,CI1,9862049.0,350906,8996,0,126245,21046,6459.0,12941.0,449,3004685,109185,0,25088,3138958
55660,CA,2008,CONTRA COSTA,M624,CONTRA COSTA COUNTY LIBRARY,PLEASANT HILL,94523,1750 OAK PARK BOULEVARD,6.0,-122.06921,37.93367,CO2,1029703.0,3742311,54689,0,2518091,142949,72375.0,81221.0,4739,23677757,430264,99742,2167196,26374959
55661,CA,2008,RIVERSIDE,M625,CORONA PUBLIC LIBRARY,CORONA,92882,650 SOUTH MAIN ST.,6.0,-117.567469,33.87493,CI1,2100516.0,541935,2916,0,298917,49879,6345.0,2000.0,150,3008960,86000,5000,150000,3249960
55662,CA,2008,LOS ANGELES,M626,COVINA PUBLIC LIBRARY,COVINA,91723,234 N. SECOND AVE.,6.0,-117.887885,34.08783,CI1,9862049.0,286662,2192,0,64495,2397,4606.0,3887.0,166,1231242,26385,28149,57174,1342950
55663,CA,2008,SAN MATEO,M627,DALY CITY PUBLIC LIBRARY,DALY CITY,94015,40 WEMBLEY DR.,6.0,-122.470188,37.6625,CI1,712690.0,566373,8776,0,236505,15195,10954.0,14204.0,290,3140919,147038,0,122071,3410028
55664,CA,2008,DEL NORTE,M628,DEL NORTE COUNTY LIBRARY DISTRICT,CRESCENT CITY,95531,190 PRICE MALL,6.0,-124.197687,41.75128,CO1,29100.0,101110,1248,0,10478,214,1246.0,1387.0,57,184485,11271,0,28228,223984
55665,CA,2008,SOLANO,M629,DIXON PUBLIC LIBRARY DISTRICT,DIXON,95620,230 N. FIRST ST.,6.0,-121.822467,38.44689,SD1,407515.0,86838,2500,0,48930,8506,994.0,1197.0,242,967445,91589,0,84454,1143488
55666,CA,2008,LOS ANGELES,M630,DOWNEY CITY LIBRARY,DOWNEY,90241,11121 BROOKSHIRE AVE.,6.0,-118.129772,33.93805,CI1,9862049.0,397002,3020,0,226928,8199,3779.0,3561.0,260,2629696,93079,25000,36743,2784518
55667,CA,2008,IMPERIAL,M631,EL CENTRO PUBLIC LIBRARY,EL CENTRO,92243,539 STATE ST.,6.0,-115.555631,32.79178,CI1,163972.0,105556,2836,0,35688,1921,793.0,2972.0,47,545116,21808,0,18532,585456
55668,CA,2008,EL DORADO,M632,EL DORADO COUNTY LIBRARY,PLACERVILLE,95667,345 FAIR LANE,6.0,-120.826883,38.72852,CO1,176075.0,373562,10795,1,318167,24111,12277.0,11238.0,528,2701645,184563,6508,256881,3149597
55669,CA,2008,LOS ANGELES,M633,EL SEGUNDO PUBLIC LIBRARY,EL SEGUNDO,90245,111 W. MARIPOSA AVE.,6.0,-118.416643,33.92362,CI1,9862049.0,251671,9110,0,146747,3046,5734.0,7661.0,345,2031300,7560,2300,15000,2056160
55670,CA,2008,SAN DIEGO,M634,ESCONDIDO PUBLIC LIBRARY,ESCONDIDO,92025,239 S. KALMIA ST.,6.0,-117.07909,33.12088,CI1,3001072.0,909584,5304,1,218507,9048,12376.0,28574.0,387,4082730,106386,0,264645,4453761
55671,CA,2008,HUMBOLDT,M635,HUMBOLDT COUNTY LIBRARY,EUREKA,95501,1313 THIRD ST.,6.0,-124.157599,40.80483,CO1,129000.0,275000,13645,1,146260,9773,12148.0,11663.0,583,2376066,293190,1980,290684,2961920
55672,CA,2008,FRESNO,M636,FRESNO COUNTY PUBLIC LIBRARY,FRESNO,93721,2420 MARIPOSA ST.,6.0,-119.786833,36.73797,CO2,909153.0,2824393,78292,3,1105895,115524,111495.0,76566.0,1950,21958748,425979,39954,2000558,24425239
55673,CA,2008,ORANGE,M637,FULLERTON PUBLIC LIBRARY,FULLERTON,92832,353 W. COMMONWEALTH AVE.,6.0,-117.930943,33.87036,CI1,3010759.0,550574,3150,1,519784,35621,12166.0,13953.0,352,3622670,53943,0,301067,3977680
55674,CA,2008,LOS ANGELES,M638,GLENDALE PUBLIC LIBRARY,GLENDALE,91205,222 E. HARVARD ST.,6.0,-118.253485,34.14441,CI1,9862049.0,1137968,12034,1,367578,70776,46967.0,15423.0,1074,8529520,145886,7500,196870,8879776
55675,CA,2008,LOS ANGELES,M639,GLENDORA LIBRARY & CULTURAL CENTER,GLENDORA,91741,140 SOUTH GLENDORA AVE.,6.0,-117.865464,34.13519,CI1,9862049.0,262664,2709,0,156050,26402,9499.0,8163.0,249,2138995,54081,22091,160224,2375391
55676,CA,2008,ALAMEDA,M640,HAYWARD PUBLIC LIBRARY,HAYWARD,94541,835 C ST.,6.0,-122.083624,37.67066,CI1,1474368.0,628883,4744,0,307359,20832,10817.0,26429.0,202,3320312,118353,32708,15352,3486725
55677,CA,2008,RIVERSIDE,M641,HEMET PUBLIC LIBRARY,HEMET,92543,300 E. LATHAM AVE,6.0,-116.969399,33.74941,CI1,2100516.0,416500,2597,0,166186,11629,6486.0,6941.0,156,2430725,139921,0,134746,2705392
55678,CA,2008,ORANGE,M642,HUNTINGTON BEACH LIBRARY,HUNTINGTON BEACH,92648,7111 TALBERT AVE.,6.0,-118.004341,33.70114,CI1,3010759.0,820232,12428,0,414304,71546,12476.0,6968.0,433,3929343,77895,12500,1715787,5735525
55679,CA,2008,IMPERIAL,M643,IMPERIAL COUNTY LIBRARY,EL CENTRO,92243,"1331 S. CLARK, BLDG 24",6.0,-115.560478,32.75129,CO2,163972.0,47671,7620,0,9932,2546,899.0,1994.0,53,221197,56739,0,8552,286488
55680,CA,2008,IMPERIAL,M644,IMPERIAL PUBLIC LIBRARY,IMPERIAL,92251,200 W. NINTH ST.,6.0,-115.571293,32.84848,CI1,163972.0,33696,2550,0,16907,1373,644.0,720.0,30,164348,4553,0,5832,174733
55681,CA,2008,LOS ANGELES,M645,INGLEWOOD PUBLIC LIBRARY,INGLEWOOD,90301,101 W. MANCHESTER BLVD.,6.0,-118.35625,33.96178,CI1,9862049.0,261545,6594,0,92442,7121,4203.0,7642.0,1048,3540206,45794,0,24300,3610300
55682,CA,2008,INYO,M646,INYO COUNTY FREE LIBRARY,INDEPENDENCE,93526,168 N. EDWARDS,6.0,-118.200011,36.80313,CO1,17136.0,131811,8239,0,14545,803,2650.0,3650.0,118,631731,8802,0,4840,645373
55683,CA,2008,KERN,M647,KERN COUNTY LIBRARY,BAKERSFIELD,93301,701 TRUXTUN AVE.,6.0,-119.00938,35.37324,CO1,800458.0,1700000,45449,2,526736,44112,40191.0,23166.0,578,8425650,312944,0,862672,9601266
55684,CA,2008,KINGS,M649,KINGS COUNTY LIBRARY,HANFORD,93230,401 N. DOUTY ST.,6.0,-119.645994,36.3291,CO1,149518.0,130191,11608,0,56172,4498,1505.0,2974.0,371,1713529,60050,0,70859,1844438
55685,CA,2008,LAKE,M650,LAKE COUNTY LIBRARY,LAKEPORT,95453,1425 N. HIGH ST,6.0,-122.917011,39.05144,CO1,64866.0,264000,6344,0,58249,1427,3957.0,3533.0,121,743722,343740,0,56884,1144346
55686,CA,2008,MARIN,M651,LARKSPUR PUBLIC LIBRARY,LARKSPUR,94939,400 MAGNOLIA AVE.,6.0,-122.535667,37.93426,CI1,248794.0,174621,2700,0,47652,3016,2414.0,697.0,61,605128,41041,0,21278,667447
55687,CA,2008,PLACER,M653,LINCOLN PUBLIC LIBRARY,LINCOLN,95648,485 TWELVE BRIDGES DRIVE,6.0,-121.289893,38.85122,CI1,341945.0,89250,3460,0,53689,15270,5000.0,10000.0,200,1082354,14371,0,0,1096725
55688,CA,2008,ALAMEDA,M654,LIVERMORE PUBLIC LIBRARY,LIVERMORE,94550,1188 S. LIVERMORE AVE.,6.0,-121.755826,37.67398,CI1,1474368.0,666602,8350,0,315767,17383,5912.0,9463.0,381,4899960,85863,50000,227487,5263310
55689,CA,2008,SAN JOAQUIN,M655,LODI PUBLIC LIBRARY,LODI,95240,201 W. LOCUST STREET,6.0,-121.275022,38.1367,CI1,672388.0,296793,3153,0,127100,9296,4132.0,2765.0,252,1607650,73100,2880,68604,1752234
55690,CA,2008,SANTA BARBARA,M656,LOMPOC PUBLIC LIBRARY,LOMPOC,93436,501 E. NORTH AVE.,6.0,-120.452509,34.6533,CI2,405396.0,239142,6913,0,91808,7919,6726.0,8727.0,222,1107981,57753,12014,351143,1528891
55691,CA,2008,LOS ANGELES,M657,LONG BEACH PUBLIC LIBRARY,LONG BEACH,90822,101 PACIFIC AVE.,6.0,-118.193815,33.76813,CI1,9862049.0,1691244,22600,0,721132,87576,29880.0,26301.0,1310,14076502,216057,0,937136,15229695
55692,CA,2008,LOS ANGELES,M658,COUNTY OF LOS ANGELES PUBLIC LIBRARY,DOWNEY,90241,7400 E. IMPERIAL HIGHWAY,6.0,-118.161565,33.92874,CO2,9862049.0,12810216,188061,4,5815250,484921,322854.0,577328.0,10777,114755882,1706306,259300,5027715,121749203
55693,CA,2008,LOS ANGELES,M659,LOS ANGELES PUBLIC LIBRARY,LOS ANGELES,90071,630 W. FIFTH ST.,6.0,-118.254261,34.0504,CI1,9862049.0,17943787,188480,0,4477379,188702,120068.0,321635.0,10764,112212503,4322246,378033,7118439,124031221
55694,CA,2008,MADERA,M660,MADERA COUNTY LIBRARY,MADERA,93637,121 N. G ST.,6.0,-120.061887,36.9608,CO1,148333.0,303222,10072,0,105015,6508,9801.0,4701.0,278,1789876,57129,0,54000,1901005
55695,CA,2008,MARIN,M661,MARIN COUNTY FREE LIBRARY,SAN RAFAEL,94903,"3501 CIVIC CENTER DR, RM 414",6.0,-122.535263,38.00069,CO2,248794.0,1104590,21372,1,622086,29359,24740.0,30226.0,1106,11083521,321756,24125,790598,12220000
55696,CA,2008,MENDOCINO,M662,MENDOCINO COUNTY LIBRARY,UKIAH,95482,105 N. MAIN ST.,6.0,-123.206679,39.15024,CO1,86221.0,498928,10529,1,109428,7407,4721.0,8212.0,176,1308491,341073,0,119117,1768681
55697,CA,2008,SAN MATEO,M663,MENLO PARK PUBLIC LIBRARY,MENLO PARK,94025,800 ALMA ST.,6.0,-122.178102,37.45243,CI1,712690.0,422877,4700,0,266427,40683,12317.0,15148.0,225,1681453,155517,0,264206,2101176
55698,CA,2008,MERCED,M664,MERCED COUNTY LIBRARY,MERCED,95340,2100 O ST.,6.0,-120.485517,37.30719,CO1,246117.0,506359,22251,0,236196,7091,2100.0,1163.0,281,2515864,96615,0,44956,2657435
